commune_id;code_insee;commune_nom;groupe_commune;departement;pays;sources;region_libelle;departement_libelle;arrondissement_libelle;commune_libelle_insee;latitude;longitude;localisation_azure
INSEE_01004;01004;Ambérieu-en-Bugey;Communauté de communes de la Plaine de l'Ain;01;France;rpc_arrivee, rpc_depart;Auvergne-Rhône-Alpes;Ain;Belley;Ambérieu-en-Bugey;45.957470664713995;5.370568254510258;AMBERIEU EN BUGEY, France
INSEE_01005;01005;Ambérieux-en-Dombes;Communauté de communes Dombes Saône Vallée;01;France;rpc_arrivee, rpc_depart;Auvergne-Rhône-Alpes;Ain;Bourg-en-Bresse;Ambérieux-en-Dombes;45.99922938293103;4.911871787269484;AMBERIEUX EN DOMBES, France
INSEE_01007;01007;Ambronay;Communauté de communes de la Plaine de l'Ain;01;France;rpc_arrivee, rpc_depart;Auvergne-Rhône-Alpes;Ain;Belley;Ambronay;46.00987321008654;5.362654637706747;AMBRONAY, France
INSEE_01027;01027;Balan;Communauté de communes de la Côtière à Montluel;01;France;rpc_arrivee, rpc_depart;Auvergne-Rhône-Alpes;Ain;Bourg-en-Bresse;Balan;45.82681753365454;5.107586651440575;BALAN, France
INSEE_01031;01031;Bellignat;Communauté d'agglomération Haut - Bugey Agglomération;01;France;rpc_arrivee, rpc_depart;Auvergne-Rhône-Alpes;Ain;Nantua;Bellignat;46.24023325917565;5.637114075797013;BELLIGNAT, France
INSEE_01032;01032;Béligneux;Communauté de communes de la Côtière à Montluel;01;France;rpc_arrivee, rpc_depart;Auvergne-Rhône-Alpes;Ain;Bourg-en-Bresse;Béligneux;45.86221995180255;5.141523782764034;BELIGNEUX, France
INSEE_01033;01033;Valserhône;Communauté de communes du Pays Bellegardien (CCPB);01;France;rpc_arrivee, rpc_depart;Auvergne-Rhône-Alpes;Ain;Nantua;Valserhône;46.123350647728046;5.79442310304219;VALSERHONE, France
INSEE_01034;01034;Belley;Communauté de communes Bugey Sud;01;France;rpc_arrivee, rpc_depart;Auvergne-Rhône-Alpes;Ain;Belley;Belley;45.743003228736555;5.692723326895182;BELLEY, France
INSEE_01037;01037;Bénonces;Communauté de communes de la Plaine de l'Ain;01;France;rpc_depart;Auvergne-Rhône-Alpes;Ain;Belley;Bénonces;45.84204476299634;5.483438052165611;BENONCES, France
INSEE_01043;01043;Beynost;Communauté de communes de Miribel et du Plateau;01;France;rpc_arrivee, rpc_depart;Auvergne-Rhône-Alpes;Ain;Bourg-en-Bresse;Beynost;45.83594448712938;4.996379391863267;BEYNOST, France
INSEE_01045;01045;Birieux;Communauté de communes de la Dombes;01;France;rpc_arrivee;Auvergne-Rhône-Alpes;Ain;Bourg-en-Bresse;Birieux;45.950909022357635;5.040067352350348;BIRIEUX, France
INSEE_01047;01047;Blyes;Communauté de communes de la Plaine de l'Ain;01;France;rpc_arrivee, rpc_depart;Auvergne-Rhône-Alpes;Ain;Belley;Blyes;45.84415298662191;5.251480324207212;BLYES, France
INSEE_01049;01049;La Boisse;Communauté de communes de la Côtière à Montluel;01;France;rpc_arrivee, rpc_depart;Auvergne-Rhône-Alpes;Ain;Bourg-en-Bresse;Boisse;45.848272504053085;5.026246891574977;LA BOISSE, France
INSEE_01053;01053;Bourg-en-Bresse;Communauté d'agglomération du Bassin de Bourg-en-Bresse;01;France;rpc_arrivee, rpc_depart;Auvergne-Rhône-Alpes;Ain;Bourg-en-Bresse;Bourg-en-Bresse;46.202711533144964;5.246911351896918;BOURG EN BRESSE, France
INSEE_01064;01064;Briord;Communauté de communes de la Plaine de l'Ain;01;France;rpc_arrivee, rpc_depart;Auvergne-Rhône-Alpes;Ain;Belley;Briord;45.76801922759245;5.483159738029499;BRIORD, France
INSEE_01074;01074;Chalamont;Communauté de communes de la Dombes;01;France;rpc_arrivee, rpc_depart;Auvergne-Rhône-Alpes;Ain;Bourg-en-Bresse;Chalamont;46.014874462720016;5.173466366865728;CHALAMONT, France
INSEE_01075;01075;Chaleins;Communauté de communes Val de Saône Centre;01;France;rpc_arrivee, rpc_depart;Auvergne-Rhône-Alpes;Ain;Bourg-en-Bresse;Chaleins;46.03613135452816;4.799905102442041;CHALEINS, France
INSEE_01089;01089;Château-Gaillard;Communauté de communes de la Plaine de l'Ain;01;France;rpc_arrivee, rpc_depart;Auvergne-Rhône-Alpes;Ain;Belley;Château-Gaillard;45.97234062120381;5.309075076934354;CHATEAU GAILLARD, France
INSEE_01093;01093;Châtillon-sur-Chalaronne;Communauté de communes de la Dombes;01;France;rpc_arrivee;Auvergne-Rhône-Alpes;Ain;Bourg-en-Bresse;Châtillon-sur-Chalaronne;46.12644416906889;4.954944578687101;CHATILLON SUR CHALARONNE, France
INSEE_01099;01099;Chazey-sur-Ain;Communauté de communes de la Plaine de l'Ain;01;France;rpc_arrivee;Auvergne-Rhône-Alpes;Ain;Belley;Chazey-sur-Ain;45.89368094811379;5.260373830172193;CHAZEY SUR AIN, France
INSEE_01105;01105;Civrieux;Communauté de communes Dombes Saône Vallée;01;France;rpc_arrivee, rpc_depart;Auvergne-Rhône-Alpes;Ain;Bourg-en-Bresse;Civrieux;45.920773703116524;4.889539388273697;CIVRIEUX, France
INSEE_01142;01142;Dagneux;Communauté de communes de la Côtière à Montluel;01;France;rpc_arrivee, rpc_depart;Auvergne-Rhône-Alpes;Ain;Bourg-en-Bresse;Dagneux;45.854014383670744;5.074835607770215;DAGNEUX, France
INSEE_01151;01151;Druillat;Communauté d'agglomération du Bassin de Bourg-en-Bresse;01;France;rpc_arrivee, rpc_depart;Auvergne-Rhône-Alpes;Ain;Bourg-en-Bresse;Druillat;46.069118700618745;5.294666181977939;DRUILLAT, France
INSEE_01157;01157;Fareins;Communauté de communes Dombes Saône Vallée;01;France;rpc_arrivee, rpc_depart;Auvergne-Rhône-Alpes;Ain;Bourg-en-Bresse;Fareins;46.023468796267395;4.768189953366116;FAREINS, France
INSEE_01166;01166;Frans;Communauté de communes Dombes Saône Vallée;01;France;rpc_arrivee, rpc_depart;Auvergne-Rhône-Alpes;Ain;Bourg-en-Bresse;Frans;45.990515881818155;4.781944344594678;FRANS, France
INSEE_01183;01183;Guéreins;CC Val de Saône Centre;01;France;rpc_arrivee, rpc_depart;Auvergne-Rhône-Alpes;Ain;Bourg-en-Bresse;Guéreins;46.105992694630274;4.783860601616071;GUEREINS, France
INSEE_01194;01194;Jassans-Riottier;Communauté d'agglomération Villefranche Beaujolais Saône;01;France;rpc_arrivee, rpc_depart;Auvergne-Rhône-Alpes;Ain;Bourg-en-Bresse;Jassans-Riottier;45.97708384582677;4.762580594669464;JASSANS RIOTTIER, France
INSEE_01202;01202;Lagnieu;Communauté de communes de la Plaine de l'Ain;01;France;rpc_arrivee, rpc_depart;Auvergne-Rhône-Alpes;Ain;Belley;Lagnieu;45.886314960788226;5.339569058721073;LAGNIEU, France
INSEE_01213;01213;Leyment;Communauté de communes de la Plaine de l'Ain;01;France;rpc_arrivee, rpc_depart;Auvergne-Rhône-Alpes;Ain;Belley;Leyment;45.928672407159794;5.292663079018266;LEYMENT, France
INSEE_01224;01224;Loyettes;Communauté de communes de la Plaine de l'Ain;01;France;rpc_arrivee, rpc_depart;Auvergne-Rhône-Alpes;Ain;Belley;Loyettes;45.79530478087062;5.216325319927909;LOYETTES, France
INSEE_01238;01238;Massieux;Communauté de communes Dombes Saône Vallée;01;France;rpc_arrivee, rpc_depart;Auvergne-Rhône-Alpes;Ain;Bourg-en-Bresse;Massieux;45.91012047261897;4.8278815564694835;MASSIEUX, France
INSEE_01244;01244;Meximieux;Communauté de communes de la Plaine de l'Ain;01;France;rpc_arrivee, rpc_depart;Auvergne-Rhône-Alpes;Ain;Belley;Meximieux;45.90471217731195;5.211591265960236;MEXIMIEUX, France
INSEE_01248;01248;Mionnay;Communauté de communes de la Dombes;01;France;rpc_arrivee, rpc_depart;Auvergne-Rhône-Alpes;Ain;Bourg-en-Bresse;Mionnay;45.89589156089551;4.9274322335655505;MIONNAY, France
INSEE_01249;01249;Miribel;Communauté de communes de Miribel et du Plateau;01;France;rpc_arrivee, rpc_depart;Auvergne-Rhône-Alpes;Ain;Bourg-en-Bresse;Miribel;45.844401200745025;4.941022249644163;MIRIBEL, France
INSEE_01250;01250;Misérieux;Communauté de communes Dombes Saône Vallée;01;France;rpc_arrivee, rpc_depart;Auvergne-Rhône-Alpes;Ain;Bourg-en-Bresse;Misérieux;45.974531099948564;4.81378073017644;MISERIEUX, France
INSEE_01255;01255;Montagnieu;Communauté de communes de la Plaine de l'Ain;01;France;rpc_arrivee, rpc_depart;Auvergne-Rhône-Alpes;Ain;Belley;Montagnieu;45.80201412338066;5.459817574878114;MONTAGNIEU, France
INSEE_01260;01260;Le Montellier;Communauté de communes de la Plaine de l'Ain;01;France;rpc_depart;Auvergne-Rhône-Alpes;Ain;Belley;Montellier;45.928396356390564;5.069873923475088;LE MONTELLIER, France
INSEE_01262;01262;Montluel;Communauté de communes de la Côtière à Montluel;01;France;rpc_arrivee, rpc_depart;Auvergne-Rhône-Alpes;Ain;Bourg-en-Bresse;Montluel;45.886764314946085;5.018484586994553;MONTLUEL, France
INSEE_01269;01269;Nantua;CA Haut - Bugey Agglomération;01;France;rpc_depart;Auvergne-Rhône-Alpes;Ain;Nantua;Nantua;46.148586115093835;5.607937178207116;NANTUA, France
INSEE_01276;01276;Niévroz;Communauté de communes de la Côtière à Montluel;01;France;rpc_arrivee;Auvergne-Rhône-Alpes;Ain;Bourg-en-Bresse;Niévroz;45.82409277951673;5.061534439626275;NIEVROZ, France
INSEE_01283;01283;Oyonnax;Communauté d'agglomération Haut - Bugey Agglomération;01;France;rpc_arrivee, rpc_depart;Auvergne-Rhône-Alpes;Ain;Nantua;Oyonnax;46.2599075662273;5.651747163051233;OYONNAX, France
INSEE_01290;01290;Pérouges;Communauté de communes de la Plaine de l'Ain;01;France;rpc_arrivee, rpc_depart;Auvergne-Rhône-Alpes;Ain;Belley;Pérouges;45.87885334108958;5.179137825021762;PEROUGES, France
INSEE_01304;01304;Pont-d'Ain;Communauté de communes Rives de l'Ain - Pays du Cerdon;01;France;rpc_depart;Auvergne-Rhône-Alpes;Ain;Nantua;Pont-d'Ain;46.055613484877156;5.3491385562601765;PONT D AIN, France
INSEE_01318;01318;Rancé;Communauté de communes Dombes Saône Vallée;01;France;rpc_depart;Auvergne-Rhône-Alpes;Ain;Bourg-en-Bresse;Rancé;45.967414930763944;4.866520367762621;RANCE, France
INSEE_01322;01322;Reyrieux;Communauté de communes Dombes Saône Vallée;01;France;rpc_arrivee, rpc_depart;Auvergne-Rhône-Alpes;Ain;Bourg-en-Bresse;Reyrieux;45.936784425299486;4.831411027689464;REYRIEUX, France
INSEE_01333;01333;Saint-André-de-Corcy;Communauté de communes de la Dombes;01;France;rpc_arrivee, rpc_depart;Auvergne-Rhône-Alpes;Ain;Bourg-en-Bresse;Saint-André-de-Corcy;45.9287415329929;4.952895926987345;ST ANDRE DE CORCY, France
INSEE_01339;01339;Saint-Bernard;Communauté de communes Dombes Saône Vallée;01;France;rpc_arrivee;Auvergne-Rhône-Alpes;Ain;Bourg-en-Bresse;Saint-Bernard;45.949966474507924;4.741943927686423;ST BERNARD, France
INSEE_01347;01347;Saint-Didier-de-Formans;CC Dombes Saône Vallée;01;France;rpc_depart;Auvergne-Rhône-Alpes;Ain;Bourg-en-Bresse;Saint-Didier-de-Formans;45.958690412442394;4.776700584090259;ST DIDIER DE FORMANS, France
INSEE_01353;01353;Sainte-Euphémie;Communauté de communes Dombes Saône Vallée;01;France;rpc_arrivee, rpc_depart;Auvergne-Rhône-Alpes;Ain;Bourg-en-Bresse;Sainte-Euphémie;45.965090621400016;4.792748415274786;STE EUPHEMIE, France
INSEE_01361;01361;Saint-Jean-de-Niost;Communauté de communes de la Plaine de l'Ain;01;France;rpc_arrivee, rpc_depart;Auvergne-Rhône-Alpes;Ain;Belley;Saint-Jean-de-Niost;45.838407432234504;5.206646721726953;ST JEAN DE NIOST, France
INSEE_01363;01363;Saint-Jean-le-Vieux;Communauté de communes Rives de l'Ain - Pays du Cerdon;01;France;rpc_depart;Auvergne-Rhône-Alpes;Ain;Nantua;Saint-Jean-le-Vieux;46.02798145720679;5.37992083677886;ST JEAN LE VIEUX, France
INSEE_01366;01366;Sainte-Julie;Communauté de communes de la Plaine de l'Ain;01;France;rpc_arrivee, rpc_depart;Auvergne-Rhône-Alpes;Ain;Belley;Sainte-Julie;45.88017909226501;5.283715756455173;STE JULIE, France
INSEE_01371;01371;Saint-Marcel;Communauté de communes de la Dombes;01;France;rpc_arrivee;Auvergne-Rhône-Alpes;Ain;Bourg-en-Bresse;Saint-Marcel;45.94846404951603;4.986202620373653;ST MARCEL, France
INSEE_01373;01373;Saint-Martin-du-Frêne;CA Haut - Bugey Agglomération;01;France;rpc_arrivee;Auvergne-Rhône-Alpes;Ain;Nantua;Saint-Martin-du-Frêne;46.13452483715552;5.57108676586148;ST MARTIN DU FRENE, France
INSEE_01374;01374;Saint-Martin-du-Mont;Communauté d'agglomération du Bassin de Bourg-en-Bresse;01;France;rpc_arrivee;Auvergne-Rhône-Alpes;Ain;Bourg-en-Bresse;Saint-Martin-du-Mont;46.10625394692748;5.329960131380074;ST MARTIN DU MONT, France
INSEE_01376;01376;Saint-Maurice-de-Beynost;Communauté de communes de Miribel et du Plateau;01;France;rpc_arrivee, rpc_depart;Auvergne-Rhône-Alpes;Ain;Bourg-en-Bresse;Saint-Maurice-de-Beynost;45.83246047334352;4.976324295174772;ST MAURICE DE BEYNOST, France
INSEE_01378;01378;Saint-Maurice-de-Gourdans;Communauté de communes de la Plaine de l'Ain;01;France;rpc_arrivee, rpc_depart;Auvergne-Rhône-Alpes;Ain;Belley;Saint-Maurice-de-Gourdans;45.81898409034392;5.171999869372512;ST MAURICE DE GOURDANS, France
INSEE_01386;01386;Saint-Sorlin-en-Bugey;Communauté de communes de la Plaine de l'Ain;01;France;rpc_arrivee;Auvergne-Rhône-Alpes;Ain;Belley;Saint-Sorlin-en-Bugey;45.88631691180274;5.369012832611382;ST SORLIN EN BUGEY, France
INSEE_01390;01390;Saint-Vulbas;Communauté de communes de la Plaine de l'Ain;01;France;rpc_arrivee, rpc_depart;Auvergne-Rhône-Alpes;Ain;Belley;Saint-Vulbas;45.82335049540124;5.267026755219609;ST VULBAS, France
INSEE_01419;01419;Thoiry;Communauté d'agglomération du Pays de Gex;01;France;rpc_depart;Auvergne-Rhône-Alpes;Ain;Gex;Thoiry;46.24478529185883;5.968461349017439;THOIRY, France
INSEE_01424;01424;Tramoyes;Communauté de communes de Miribel et du Plateau;01;France;rpc_arrivee, rpc_depart;Auvergne-Rhône-Alpes;Ain;Bourg-en-Bresse;Tramoyes;45.87420675026021;4.962383527805514;TRAMOYES, France
INSEE_01427;01427;Trévoux;Communauté de communes Dombes Saône Vallée;01;France;rpc_arrivee, rpc_depart;Auvergne-Rhône-Alpes;Ain;Bourg-en-Bresse;Trévoux;45.939826638806544;4.771022973766515;TREVOUX, France
INSEE_01443;01443;Villars-les-Dombes;Communauté de communes de la Dombes;01;France;rpc_arrivee;Auvergne-Rhône-Alpes;Ain;Bourg-en-Bresse;Villars-les-Dombes;46.00002847235105;5.044348130628995;VILLARS LES DOMBES, France
INSEE_01446;01446;Villeneuve;Communauté de communes Dombes Saône Vallée;01;France;rpc_arrivee, rpc_depart;Auvergne-Rhône-Alpes;Ain;Bourg-en-Bresse;Villeneuve;46.034632864094334;4.85977710553048;VILLENEUVE, France
INSEE_01450;01450;Villieu-Loyes-Mollon;Communauté de communes de la Plaine de l'Ain;01;France;rpc_arrivee, rpc_depart;Auvergne-Rhône-Alpes;Ain;Belley;Villieu-Loyes-Mollon;45.92896222052594;5.226515948645298;VILLIEU LOYES MOLLON, France
INSEE_07010;07010;Annonay;Communauté d'agglomération Annonay Rhône Agglo;07;France;rpc_arrivee, rpc_depart;Auvergne-Rhône-Alpes;Ardèche;Tournon-sur-Rhône;Annonay;45.24488842792516;4.641924747518317;ANNONAY, France
INSEE_07015;07015;Arras-sur-Rhône;CC Porte de DrômArdèche;07;France;rpc_arrivee, rpc_depart;Auvergne-Rhône-Alpes;Ardèche;Tournon-sur-Rhône;Arras-sur-Rhône;45.14296197122317;4.806857958610521;ARRAS SUR RHONE, France
INSEE_07078;07078;Davézieux;Communauté d'agglomération Annonay Rhône Agglo;07;France;rpc_arrivee, rpc_depart;Auvergne-Rhône-Alpes;Ardèche;Tournon-sur-Rhône;Davézieux;45.253344979714036;4.69893672164258;DAVEZIEUX, France
INSEE_24322;24322;Périgueux;Communauté d'agglomération Le Grand Périgueux;24;France;rpc_depart;Nouvelle-Aquitaine;Dordogne;Périgueux;Périgueux;45.19386243643885;0.7104834463705425;PERIGUEUX, France
INSEE_26002;26002;Albon;Communauté de communes Porte de DrômArdèche;26;France;rpc_arrivee;Auvergne-Rhône-Alpes;Drôme;Valence;Albon;45.23937072450599;4.865439823437233;ALBON, France
INSEE_26004;26004;Alixan;CA Valence Romans Agglo;26;France;rpc_arrivee;Auvergne-Rhône-Alpes;Drôme;Valence;Alixan;44.984321172481714;5.01674004657021;ALIXAN, France
INSEE_26009;26009;Andancette;Communauté de communes Porte de DrômArdèche;26;France;rpc_arrivee, rpc_depart;Auvergne-Rhône-Alpes;Drôme;Valence;Andancette;45.247540443489726;4.812665581161639;ANDANCETTE, France
INSEE_26010;26010;Anneyron;Communauté de communes Porte de DrômArdèche;26;France;rpc_arrivee, rpc_depart;Auvergne-Rhône-Alpes;Drôme;Valence;Anneyron;45.27178172675811;4.889193905460484;ANNEYRON, France
INSEE_26041;26041;Beausemblant;Communauté de communes Porte de DrômArdèche;26;France;rpc_arrivee, rpc_depart;Auvergne-Rhône-Alpes;Drôme;Valence;Beausemblant;45.21383664598295;4.843815429611351;BEAUSEMBLANT, France
INSEE_26058;26058;Bourg-lès-Valence;Communauté d'agglomération Valence Romans Agglo;26;France;rpc_arrivee, rpc_depart;Auvergne-Rhône-Alpes;Drôme;Valence;Bourg-lès-Valence;44.96365025106323;4.8899921383538985;BOURG LES VALENCE, France
INSEE_26072;26072;Chantemerle-les-Blés;Communauté d'agglomération Arche Agglo;26;France;rpc_depart;Auvergne-Rhône-Alpes;Drôme;Valence;Chantemerle-les-Blés;45.122213262551284;4.889724466513101;CHANTEMERLE LES BLES, France
INSEE_26083;26083;Châteauneuf-de-Galaure;Communauté de communes Porte de DrômArdèche;26;France;rpc_arrivee, rpc_depart;Auvergne-Rhône-Alpes;Drôme;Valence;Châteauneuf-de-Galaure;45.23371119854644;4.963754962838793;CHATEAUNEUF DE GALAURE, France
INSEE_26118;26118;Épinouze;CC Porte de DrômArdèche;26;France;rpc_arrivee;Auvergne-Rhône-Alpes;Drôme;Valence;Épinouze;45.312250766787;4.938043347411242;EPINOUZE, France
INSEE_26247;26247;Ponsas;Communauté de communes Porte de DrômArdèche;26;France;rpc_arrivee;Auvergne-Rhône-Alpes;Drôme;Valence;Ponsas;45.154579838143015;4.842296172202246;PONSAS, France
INSEE_26313;26313;Saint-Marcel-lès-Valence;Communauté d'agglomération Valence Romans Agglo;26;France;rpc_depart;Auvergne-Rhône-Alpes;Drôme;Valence;Saint-Marcel-lès-Valence;44.97238280573799;4.9505895276112355;ST MARCEL LES VALENCE, France
INSEE_26325;26325;Saint-Rambert-d'Albon;Communauté de communes Porte de DrômArdèche;26;France;rpc_arrivee, rpc_depart;Auvergne-Rhône-Alpes;Drôme;Valence;Saint-Rambert-d'Albon;45.28826755726601;4.829926706116574;ST RAMBERT D ALBON, France
INSEE_26330;26330;Saint-Sorlin-en-Valloire;Communauté de communes Porte de DrômArdèche;26;France;rpc_arrivee, rpc_depart;Auvergne-Rhône-Alpes;Drôme;Valence;Saint-Sorlin-en-Valloire;45.280649337933156;4.962861183236263;ST SORLIN EN VALLOIRE, France
INSEE_26333;26333;Saint-Vallier;Communauté de communes Porte de DrômArdèche;26;France;rpc_arrivee, rpc_depart;Auvergne-Rhône-Alpes;Drôme;Valence;Saint-Vallier;45.179437654918374;4.820110992116266;ST VALLIER, France
INSEE_26341;26341;Serves-sur-Rhône;Communauté d'agglomération Arche Agglo;26;France;rpc_arrivee, rpc_depart;Auvergne-Rhône-Alpes;Drôme;Valence;Serves-sur-Rhône;45.14333984860407;4.83002046075613;SERVES SUR RHONE, France
INSEE_26362;26362;Valence;Communauté d'agglomération Valence Romans Agglo;26;France;rpc_arrivee, rpc_depart;Auvergne-Rhône-Alpes;Drôme;Valence;Valence;44.923418303432804;4.916385118892043;VALENCE, France
INSEE_38012;38012;Aoste;Communauté de communes Les Vals du Dauphiné;38;France;rpc_depart;Auvergne-Rhône-Alpes;Isère;Tour-du-Pin;Aoste;45.60150523297381;5.610984498979651;AOSTE, France
INSEE_38017;38017;Assieu;Communauté de communes Entre Bièvre et Rhône;38;France;rpc_arrivee, rpc_depart;Auvergne-Rhône-Alpes;Isère;Vienne;Assieu;45.41015778879701;4.880037093786893;ASSIEU, France
INSEE_38019;38019;Auberives-sur-Varèze;Communauté de communes Entre Bièvre et Rhône;38;France;rpc_depart;Auvergne-Rhône-Alpes;Isère;Vienne;Auberives-sur-Varèze;45.42595448287706;4.816221588031697;AUBERIVES SUR VAREZE, France
INSEE_38022;38022;Les Avenières Veyrins-Thuellin;Communauté de communes Les Balcons du Dauphiné;38;France;rpc_arrivee, rpc_depart;Auvergne-Rhône-Alpes;Isère;Tour-du-Pin;Avenières Veyrins-Thuellin;45.64128018339704;5.556694089941099;LES AVENIERES VEYRINS THUELLIN, France
INSEE_38026;38026;La Balme-les-Grottes;Communauté de communes Les Balcons du Dauphiné;38;France;rpc_arrivee, rpc_depart;Auvergne-Rhône-Alpes;Isère;Tour-du-Pin;Balme-les-Grottes;45.843479744188386;5.319632886422239;LA BALME LES GROTTES, France
INSEE_38035;38035;Beauvoir-de-Marc;Communauté de communes Bièvre Isère;38;France;rpc_arrivee, rpc_depart;Auvergne-Rhône-Alpes;Isère;Vienne;Beauvoir-de-Marc;45.51834862320065;5.080653231854265;BEAUVOIR DE MARC, France
INSEE_38048;38048;Bonnefamille;Communauté de communes Collines Isère Nord Communauté;38;France;rpc_depart;Auvergne-Rhône-Alpes;Isère;Tour-du-Pin;Bonnefamille;45.59903970275402;5.108730631394035;BONNEFAMILLE, France
INSEE_38053;38053;Bourgoin-Jallieu;Communauté d'agglomération Porte de l'Isère (CAPI);38;France;rpc_arrivee, rpc_depart;Auvergne-Rhône-Alpes;Isère;Tour-du-Pin;Bourgoin-Jallieu;45.60253457437658;5.274721160591369;BOURGOIN JALLIEU, France
INSEE_38058;38058;Brézins;Communauté de communes Bièvre Isère;38;France;rpc_arrivee, rpc_depart;Auvergne-Rhône-Alpes;Isère;Vienne;Brézins;45.3475451250024;5.305800865546984;BREZINS, France
INSEE_38064;38064;Cessieu;Communauté de communes Les Vals du Dauphiné;38;France;rpc_arrivee, rpc_depart;Auvergne-Rhône-Alpes;Isère;Tour-du-Pin;Cessieu;45.569430401431305;5.374600490358901;CESSIEU, France
INSEE_38067;38067;Chamagnieu;Communauté de communes Les Balcons du Dauphiné;38;France;rpc_arrivee, rpc_depart;Auvergne-Rhône-Alpes;Isère;Tour-du-Pin;Chamagnieu;45.6887268622371;5.1679361830960335;CHAMAGNIEU, France
INSEE_38072;38072;Chanas;Communauté de communes Entre Bièvre et Rhône;38;France;rpc_arrivee, rpc_depart;Auvergne-Rhône-Alpes;Isère;Vienne;Chanas;45.31933767010523;4.832718946889668;CHANAS, France
INSEE_38085;38085;Charvieu-Chavagneux;Communauté de communes Lyon Saint Exupéry en Dauphiné;38;France;rpc_arrivee, rpc_depart;Auvergne-Rhône-Alpes;Isère;Tour-du-Pin;Charvieu-Chavagneux;45.73858808966103;5.152180735607223;CHARVIEU CHAVAGNEUX, France
INSEE_38087;38087;Chasse-sur-Rhône;Communauté d'agglomération Vienne Condrieu;38;France;rpc_arrivee, rpc_depart;Auvergne-Rhône-Alpes;Isère;Vienne;Chasse-sur-Rhône;45.57803055753747;4.8129098164485224;CHASSE SUR RHONE, France
INSEE_38097;38097;Chavanoz;Communauté de communes Lyon Saint Exupéry en Dauphiné;38;France;rpc_arrivee, rpc_depart;Auvergne-Rhône-Alpes;Isère;Tour-du-Pin;Chavanoz;45.769588799142824;5.171871444618496;CHAVANOZ, France
INSEE_38101;38101;Cheyssieu;Communauté de communes Entre Bièvre et Rhône;38;France;rpc_arrivee, rpc_depart;Auvergne-Rhône-Alpes;Isère;Vienne;Cheyssieu;45.426553092206774;4.84229505813563;CHEYSSIEU, France
INSEE_38104;38104;Chimilin;Communauté de communes Les Vals du Dauphiné;38;France;rpc_arrivee, rpc_depart;Auvergne-Rhône-Alpes;Isère;Tour-du-Pin;Chimilin;45.57228333289159;5.5884361101557065;CHIMILIN, France
INSEE_38107;38107;Chonas-l'Amballan;Communauté d'agglomération Vienne Condrieu;38;France;rpc_arrivee, rpc_depart;Auvergne-Rhône-Alpes;Isère;Vienne;Chonas-l'Amballan;45.46467217674944;4.80405398404281;CHONAS L AMBALLAN, France
INSEE_38109;38109;Chozeau;Communauté de communes Les Balcons du Dauphiné;38;France;rpc_arrivee, rpc_depart;Auvergne-Rhône-Alpes;Isère;Tour-du-Pin;Chozeau;45.69874781696148;5.208268406352147;CHOZEAU, France
INSEE_38110;38110;Chuzelles;Communauté d'agglomération Vienne Condrieu;38;France;rpc_arrivee, rpc_depart;Auvergne-Rhône-Alpes;Isère;Vienne;Chuzelles;45.57699300426128;4.879166967988349;CHUZELLES, France
INSEE_38124;38124;Corbelin;Communauté de communes Les Balcons du Dauphiné;38;France;rpc_depart;Auvergne-Rhône-Alpes;Isère;Tour-du-Pin;Corbelin;45.600404708832485;5.550189487068588;CORBELIN, France
INSEE_38130;38130;La Côte-Saint-André;Communauté de communes Bièvre Isère;38;France;rpc_arrivee, rpc_depart;Auvergne-Rhône-Alpes;Isère;Vienne;Côte-Saint-André;45.38436059276036;5.258641391972295;LA COTE ST ANDRE, France
INSEE_38131;38131;Les Côtes-d'Arey;Communauté d'agglomération Vienne Condrieu;38;France;rpc_arrivee, rpc_depart;Auvergne-Rhône-Alpes;Isère;Vienne;Côtes-d'Arey;45.459380663895764;4.8724607117859495;LES COTES D AREY, France
INSEE_38138;38138;Crémieu;Communauté de communes Les Balcons du Dauphiné;38;France;rpc_arrivee, rpc_depart;Auvergne-Rhône-Alpes;Isère;Tour-du-Pin;Crémieu;45.731381964094744;5.2634817789769155;CREMIEU, France
INSEE_38144;38144;Diémoz;Communauté de communes Collines Isère Nord Communauté;38;France;rpc_arrivee, rpc_depart;Auvergne-Rhône-Alpes;Isère;Vienne;Diémoz;45.59107370746371;5.089335339185151;DIEMOZ, France
INSEE_38149;38149;Domarin;CA Porte de l'Isère (CAPI);38;France;rpc_arrivee;Auvergne-Rhône-Alpes;Isère;Tour-du-Pin;Domarin;45.582724282945804;5.249132769561629;DOMARIN, France
INSEE_38156;38156;Les Éparres;Communauté d'agglomération Porte de l'Isère (CAPI);38;France;rpc_arrivee, rpc_depart;Auvergne-Rhône-Alpes;Isère;Tour-du-Pin;Éparres;45.53714114326509;5.2908330027582675;LES EPARRES, France
INSEE_38157;38157;Estrablin;Communauté d'agglomération Vienne Condrieu;38;France;rpc_arrivee, rpc_depart;Auvergne-Rhône-Alpes;Isère;Vienne;Estrablin;45.5094094945006;4.966231862307511;ESTRABLIN, France
INSEE_38160;38160;Eyzin-Pinet;Communauté d'agglomération Vienne Condrieu;38;France;rpc_arrivee, rpc_depart;Auvergne-Rhône-Alpes;Isère;Vienne;Eyzin-Pinet;45.477657854240064;4.997658909675035;EYZIN PINET, France
INSEE_38172;38172;Four;Communauté d'agglomération Porte de l'Isère (CAPI);38;France;rpc_arrivee, rpc_depart;Auvergne-Rhône-Alpes;Isère;Tour-du-Pin;Four;45.572584732122124;5.195997126987745;FOUR, France
INSEE_38176;38176;Frontonas;Communauté de communes Les Balcons du Dauphiné;38;France;rpc_arrivee, rpc_depart;Auvergne-Rhône-Alpes;Isère;Tour-du-Pin;Frontonas;45.6495869980238;5.18439178788509;FRONTONAS, France
INSEE_38184;38184;Grenay;CC Collines Isère Nord Communauté;38;France;rpc_arrivee, rpc_depart;Auvergne-Rhône-Alpes;Isère;Vienne;Grenay;45.65972392782021;5.075628084268479;GRENAY, France
INSEE_38185;38185;Grenoble;Grenoble-Alpes-Métropole;38;France;rpc_arrivee, rpc_depart;Auvergne-Rhône-Alpes;Isère;Grenoble;Grenoble;45.1842334633299;5.715540018884406;GRENOBLE, France
INSEE_38189;38189;Heyrieux;Communauté de communes Collines Isère Nord Communauté;38;France;rpc_arrivee, rpc_depart;Auvergne-Rhône-Alpes;Isère;Vienne;Heyrieux;45.627507512851174;5.0578759338444375;HEYRIEUX, France
INSEE_38190;38190;Hières-sur-Amby;Communauté de communes Les Balcons du Dauphiné;38;France;rpc_arrivee, rpc_depart;Auvergne-Rhône-Alpes;Isère;Tour-du-Pin;Hières-sur-Amby;45.80092250732871;5.291381314436571;HIERES SUR AMBY, France
INSEE_38193;38193;L'Isle-d'Abeau;Communauté d'agglomération Porte de l'Isère (CAPI);38;France;rpc_arrivee, rpc_depart;Auvergne-Rhône-Alpes;Isère;Tour-du-Pin;Isle-d'Abeau;45.61525918414608;5.223437670301769;L ISLE D ABEAU, France
INSEE_38197;38197;Janneyrias;Communauté de communes Lyon Saint Exupéry en Dauphiné;38;France;rpc_arrivee, rpc_depart;Auvergne-Rhône-Alpes;Isère;Tour-du-Pin;Janneyrias;45.75116444233289;5.114467960875665;JANNEYRIAS, France
INSEE_38199;38199;Jardin;Communauté d'agglomération Vienne Condrieu;38;France;rpc_arrivee, rpc_depart;Auvergne-Rhône-Alpes;Isère;Vienne;Jardin;45.48995300454526;4.911253475273758;JARDIN, France
INSEE_38210;38210;Leyrieu;Communauté de communes Les Balcons du Dauphiné;38;France;rpc_arrivee, rpc_depart;Auvergne-Rhône-Alpes;Isère;Tour-du-Pin;Leyrieu;45.75559067336016;5.257192208963977;LEYRIEU, France
INSEE_38215;38215;Luzinay;Communauté d'agglomération Vienne Condrieu;38;France;rpc_arrivee, rpc_depart;Auvergne-Rhône-Alpes;Isère;Vienne;Luzinay;45.58760842780836;4.962650430770202;LUZINAY, France
INSEE_38238;38238;Moidieu-Détourbe;Communauté d'agglomération Vienne Condrieu;38;France;rpc_arrivee, rpc_depart;Auvergne-Rhône-Alpes;Isère;Vienne;Moidieu-Détourbe;45.51505265944371;5.018110164353074;MOIDIEU DETOURBE, France
INSEE_38239;38239;Moirans;Communauté d'agglomération du Pays Voironnais;38;France;rpc_arrivee, rpc_depart;Auvergne-Rhône-Alpes;Isère;Grenoble;Moirans;45.322755275476425;5.567581377607585;MOIRANS, France
INSEE_38247;38247;Montalieu-Vercieu;CC Les Balcons du Dauphiné;38;France;rpc_arrivee;Auvergne-Rhône-Alpes;Isère;Tour-du-Pin;Montalieu-Vercieu;45.81434340140132;5.4035822788711165;MONTALIEU VERCIEU, France
INSEE_38261;38261;Morestel;Communauté de communes Les Balcons du Dauphiné;38;France;rpc_arrivee, rpc_depart;Auvergne-Rhône-Alpes;Isère;Tour-du-Pin;Morestel;45.68119966946759;5.47157070607336;MORESTEL, France
INSEE_38276;38276;Nivolas-Vermelle;Communauté d'agglomération Porte de l'Isère (CAPI);38;France;rpc_arrivee, rpc_depart;Auvergne-Rhône-Alpes;Isère;Tour-du-Pin;Nivolas-Vermelle;45.56376165035286;5.308362696305201;NIVOLAS VERMELLE, France
INSEE_38297;38297;Arandon-Passins;Communauté de communes Les Balcons du Dauphiné;38;France;rpc_arrivee, rpc_depart;Auvergne-Rhône-Alpes;Isère;Tour-du-Pin;Arandon-Passins;45.706447189403384;5.437322282552206;ARANDON PASSINS, France
INSEE_38298;38298;Le Péage-de-Roussillon;Communauté de communes Entre Bièvre et Rhône;38;France;rpc_arrivee, rpc_depart;Auvergne-Rhône-Alpes;Isère;Vienne;Péage-de-Roussillon;45.37232242814336;4.782548138665076;LE PEAGE DE ROUSSILLON, France
INSEE_38316;38316;Pont-de-Chéruy;Communauté de communes Lyon Saint Exupéry en Dauphiné;38;France;rpc_arrivee, rpc_depart;Auvergne-Rhône-Alpes;Isère;Tour-du-Pin;Pont-de-Chéruy;45.74939046757855;5.172794781809731;PONT DE CHERUY, France
INSEE_38318;38318;Pont-Évêque;Communauté d'agglomération Vienne Condrieu;38;France;rpc_arrivee, rpc_depart;Auvergne-Rhône-Alpes;Isère;Vienne;Pont-Évêque;45.53347023918796;4.927829072167064;PONT EVEQUE, France
INSEE_38336;38336;Reventin-Vaugris;Communauté d'agglomération Vienne Condrieu;38;France;rpc_arrivee, rpc_depart;Auvergne-Rhône-Alpes;Isère;Vienne;Reventin-Vaugris;45.47572542399089;4.843806331931763;REVENTIN VAUGRIS, France
INSEE_38337;38337;Rives;Communauté d'agglomération du Pays Voironnais;38;France;rpc_arrivee, rpc_depart;Auvergne-Rhône-Alpes;Isère;Grenoble;Rives;45.36061154873622;5.48478184264202;RIVES, France
INSEE_38339;38339;Roche;Communauté de communes Collines Isère Nord Communauté;38;France;rpc_arrivee, rpc_depart;Auvergne-Rhône-Alpes;Isère;Tour-du-Pin;Roche;45.57802181653797;5.155728592985167;ROCHE, France
INSEE_38340;38340;Les Roches-de-Condrieu;Communauté de communes Entre Bièvre et Rhône;38;France;rpc_arrivee;Auvergne-Rhône-Alpes;Isère;Vienne;Roches-de-Condrieu;45.45315845344945;4.765603324675974;LES ROCHES DE CONDRIEU, France
INSEE_38344;38344;Roussillon;Communauté de communes Entre Bièvre et Rhône;38;France;rpc_depart;Auvergne-Rhône-Alpes;Isère;Vienne;Roussillon;45.38183328406613;4.813324397464907;ROUSSILLON, France
INSEE_38346;38346;Royas;Communauté de communes Bièvre Isère;38;France;rpc_arrivee, rpc_depart;Auvergne-Rhône-Alpes;Isère;Vienne;Royas;45.50481476382991;5.101812657211548;ROYAS, France
INSEE_38348;38348;Ruy-Montceau;Communauté d'agglomération Porte de l'Isère (CAPI);38;France;rpc_arrivee, rpc_depart;Auvergne-Rhône-Alpes;Isère;Tour-du-Pin;Ruy-Montceau;45.58808762518859;5.3481641569374805;RUY MONTCEAU, France
INSEE_38349;38349;Sablons;Communauté de communes Entre Bièvre et Rhône;38;France;rpc_depart;Auvergne-Rhône-Alpes;Isère;Vienne;Sablons;45.320403066134105;4.784969670932439;SABLONS, France
INSEE_38352;38352;Saint-Alban-de-Roche;Communauté d'agglomération Porte de l'Isère (CAPI);38;France;rpc_arrivee, rpc_depart;Auvergne-Rhône-Alpes;Isère;Tour-du-Pin;Saint-Alban-de-Roche;45.58887427929692;5.224312472543965;ST ALBAN DE ROCHE, France
INSEE_38358;38358;Sainte-Anne-sur-Gervonde;CC Bièvre Isère;38;France;rpc_arrivee, rpc_depart;Auvergne-Rhône-Alpes;Isère;Vienne;Sainte-Anne-sur-Gervonde;45.49978214217339;5.23538994979074;STE ANNE SUR GERVONDE, France
INSEE_38374;38374;Saint-Chef;Communauté de communes Les Balcons du Dauphiné;38;France;rpc_arrivee;Auvergne-Rhône-Alpes;Isère;Tour-du-Pin;Saint-Chef;45.64007944167357;5.361903252693445;ST CHEF, France
INSEE_38377;38377;Saint-Clair-de-la-Tour;Communauté de communes Les Vals du Dauphiné;38;France;rpc_depart;Auvergne-Rhône-Alpes;Isère;Tour-du-Pin;Saint-Clair-de-la-Tour;45.57168835449377;5.486278475791929;ST CLAIR DE LA TOUR, France
INSEE_38381;38381;Saint-Didier-de-la-Tour;Communauté de communes Les Vals du Dauphiné;38;France;rpc_arrivee, rpc_depart;Auvergne-Rhône-Alpes;Isère;Tour-du-Pin;Saint-Didier-de-la-Tour;45.544606289586824;5.487665679912258;ST DIDIER DE LA TOUR, France
INSEE_38384;38384;Saint-Étienne-de-Saint-Geoirs;Communauté de communes Bièvre Isère;38;France;rpc_arrivee;Auvergne-Rhône-Alpes;Isère;Vienne;Saint-Étienne-de-Saint-Geoirs;45.34679639467457;5.3503878017651445;ST ETIENNE DE ST GEOIRS, France
INSEE_38389;38389;Saint-Georges-d'Espéranche;Communauté de communes Collines Isère Nord Communauté;38;France;rpc_arrivee, rpc_depart;Auvergne-Rhône-Alpes;Isère;Vienne;Saint-Georges-d'Espéranche;45.562807689953615;5.088996798213419;ST GEORGES D ESPERANCHE, France
INSEE_38399;38399;Saint-Jean-de-Bournay;Communauté de communes Bièvre Isère;38;France;rpc_arrivee, rpc_depart;Auvergne-Rhône-Alpes;Isère;Vienne;Saint-Jean-de-Bournay;45.496412853210074;5.145024506435346;ST JEAN DE BOURNAY, France
INSEE_38400;38400;Saint-Jean-de-Moirans;Communauté d'agglomération du Pays Voironnais;38;France;rpc_arrivee, rpc_depart;Auvergne-Rhône-Alpes;Isère;Grenoble;Saint-Jean-de-Moirans;45.33383483714814;5.584826086606537;ST JEAN DE MOIRANS, France
INSEE_38401;38401;Saint-Jean-de-Soudain;Communauté de communes Les Vals du Dauphiné;38;France;rpc_arrivee, rpc_depart;Auvergne-Rhône-Alpes;Isère;Tour-du-Pin;Saint-Jean-de-Soudain;45.583905783567815;5.434982514124493;ST JEAN DE SOUDAIN, France
INSEE_38408;38408;Saint-Just-Chaleyssin;Communauté de communes Collines Isère Nord Communauté;38;France;rpc_arrivee, rpc_depart;Auvergne-Rhône-Alpes;Isère;Vienne;Saint-Just-Chaleyssin;45.58668286715691;5.007718449236261;ST JUST CHALEYSSIN, France
INSEE_38415;38415;Saint-Marcel-Bel-Accueil;Communauté de communes Les Balcons du Dauphiné;38;France;rpc_arrivee, rpc_depart;Auvergne-Rhône-Alpes;Isère;Tour-du-Pin;Saint-Marcel-Bel-Accueil;45.65016343327362;5.241884350590139;ST MARCEL BEL ACCUEIL, France
INSEE_38425;38425;Saint-Maurice-l'Exil;Communauté de communes Entre Bièvre et Rhône;38;France;rpc_arrivee, rpc_depart;Auvergne-Rhône-Alpes;Isère;Vienne;Saint-Maurice-l'Exil;45.39109034638345;4.777384644532279;ST MAURICE L EXIL, France
INSEE_38449;38449;Saint-Quentin-Fallavier;Communauté d'agglomération Porte de l'Isère (CAPI);38;France;rpc_arrivee, rpc_depart;Auvergne-Rhône-Alpes;Isère;Tour-du-Pin;Saint-Quentin-Fallavier;45.63920162283401;5.11276332621013;ST QUENTIN FALLAVIER, France
INSEE_38451;38451;Saint-Romain-de-Jalionas;Communauté de communes Les Balcons du Dauphiné;38;France;rpc_arrivee, rpc_depart;Auvergne-Rhône-Alpes;Isère;Tour-du-Pin;Saint-Romain-de-Jalionas;45.75266974598409;5.2226977434843445;ST ROMAIN DE JALIONAS, France
INSEE_38455;38455;Saint-Savin;Communauté d'agglomération Porte de l'Isère (CAPI);38;France;rpc_arrivee, rpc_depart;Auvergne-Rhône-Alpes;Isère;Tour-du-Pin;Saint-Savin;45.628246854804516;5.321564354343966;ST SAVIN, France
INSEE_38464;38464;Saint-Victor-de-Cessieu;Communauté de communes Les Vals du Dauphiné;38;France;rpc_arrivee, rpc_depart;Auvergne-Rhône-Alpes;Isère;Tour-du-Pin;Saint-Victor-de-Cessieu;45.53788047940136;5.381384230285976;ST VICTOR DE CESSIEU, France
INSEE_38465;38465;Saint-Victor-de-Morestel;CC Les Balcons du Dauphiné;38;France;rpc_arrivee, rpc_depart;Auvergne-Rhône-Alpes;Isère;Tour-du-Pin;Saint-Victor-de-Morestel;45.704219399510315;5.495623131627986;ST VICTOR DE MORESTEL, France
INSEE_38467;38467;Salagnon;Communauté de communes Les Balcons du Dauphiné;38;France;rpc_depart;Auvergne-Rhône-Alpes;Isère;Tour-du-Pin;Salagnon;45.67171943009501;5.352286468244769;SALAGNON, France
INSEE_38468;38468;Salaise-sur-Sanne;Communauté de communes Entre Bièvre et Rhône;38;France;rpc_arrivee, rpc_depart;Auvergne-Rhône-Alpes;Isère;Vienne;Salaise-sur-Sanne;45.34320273397476;4.8028393805882645;SALAISE SUR SANNE, France
INSEE_38475;38475;Satolas-et-Bonce;Communauté d'agglomération Porte de l'Isère (CAPI);38;France;rpc_arrivee, rpc_depart;Auvergne-Rhône-Alpes;Isère;Tour-du-Pin;Satolas-et-Bonce;45.68212477836113;5.121770282880924;SATOLAS ET BONCE, France
INSEE_38480;38480;Septème;Communauté d'agglomération Vienne Condrieu;38;France;rpc_arrivee, rpc_depart;Auvergne-Rhône-Alpes;Isère;Vienne;Septème;45.55136445940822;4.988154209847567;SEPTEME, France
INSEE_38481;38481;Sérézin-de-la-Tour;Communauté d'agglomération Porte de l'Isère (CAPI);38;France;rpc_arrivee, rpc_depart;Auvergne-Rhône-Alpes;Isère;Tour-du-Pin;Sérézin-de-la-Tour;45.55536391924744;5.3482644982933065;SEREZIN DE LA TOUR, France
INSEE_38484;38484;Serpaize;Communauté d'agglomération Vienne Condrieu;38;France;rpc_arrivee, rpc_depart;Auvergne-Rhône-Alpes;Isère;Vienne;Serpaize;45.558128331776885;4.921134787752564;SERPAIZE, France
INSEE_38487;38487;Seyssuel;Communauté d'agglomération Vienne Condrieu;38;France;rpc_arrivee, rpc_depart;Auvergne-Rhône-Alpes;Isère;Vienne;Seyssuel;45.562382027794825;4.840952361231533;SEYSSUEL, France
INSEE_38507;38507;Tignieu-Jameyzieu;Communauté de communes Les Balcons du Dauphiné;38;France;rpc_arrivee, rpc_depart;Auvergne-Rhône-Alpes;Isère;Tour-du-Pin;Tignieu-Jameyzieu;45.7320903525699;5.182957386499688;TIGNIEU JAMEYZIEU, France
INSEE_38509;38509;La Tour-du-Pin;Communauté de communes Les Vals du Dauphiné;38;France;rpc_arrivee, rpc_depart;Auvergne-Rhône-Alpes;Isère;Tour-du-Pin;Tour-du-Pin;45.57434454880344;5.445871237037869;LA TOUR DU PIN, France
INSEE_38515;38515;Trept;Communauté de communes Les Balcons du Dauphiné;38;France;rpc_arrivee, rpc_depart;Auvergne-Rhône-Alpes;Isère;Tour-du-Pin;Trept;45.68637072165002;5.323858228381917;TREPT, France
INSEE_38519;38519;Valencin;Communauté de communes Collines Isère Nord Communauté;38;France;rpc_arrivee, rpc_depart;Auvergne-Rhône-Alpes;Isère;Vienne;Valencin;45.60582933548306;5.025900101822624;VALENCIN, France
INSEE_38530;38530;Vaulx-Milieu;Communauté d'agglomération Porte de l'Isère (CAPI);38;France;rpc_arrivee, rpc_depart;Auvergne-Rhône-Alpes;Isère;Tour-du-Pin;Vaulx-Milieu;45.61735743364093;5.186805182374853;VAULX MILIEU, France
INSEE_38537;38537;La Verpillière;Communauté d'agglomération Porte de l'Isère (CAPI);38;France;rpc_arrivee, rpc_depart;Auvergne-Rhône-Alpes;Isère;Tour-du-Pin;Verpillière;45.6375520339677;5.1494261225620175;LA VERPILLIERE, France
INSEE_38540;38540;Veurey-Voroize;Grenoble-Alpes-Métropole;38;France;rpc_arrivee, rpc_depart;Auvergne-Rhône-Alpes;Isère;Grenoble;Veurey-Voroize;45.27133141368134;5.6042059355989675;VEUREY VOROIZE, France
INSEE_38544;38544;Vienne;Communauté d'agglomération Vienne Condrieu;38;France;rpc_arrivee, rpc_depart;Auvergne-Rhône-Alpes;Isère;Vienne;Vienne;45.52207670194343;4.880333204768244;VIENNE, France
INSEE_38553;38553;Villefontaine;Communauté d'agglomération Porte de l'Isère (CAPI);38;France;rpc_arrivee, rpc_depart;Auvergne-Rhône-Alpes;Isère;Tour-du-Pin;Villefontaine;45.61605763762532;5.154918634279429;VILLEFONTAINE, France
INSEE_38554;38554;Villemoirieu;Communauté de communes Les Balcons du Dauphiné;38;France;rpc_arrivee, rpc_depart;Auvergne-Rhône-Alpes;Isère;Tour-du-Pin;Villemoirieu;45.713765327329206;5.234823769242343;VILLEMOIRIEU, France
INSEE_38555;38555;Villeneuve-de-Marc;Communauté de communes Bièvre Isère;38;France;rpc_depart;Auvergne-Rhône-Alpes;Isère;Vienne;Villeneuve-de-Marc;45.46272310247866;5.12015086689403;VILLENEUVE DE MARC, France
INSEE_38557;38557;Villette-d'Anthon;Communauté de communes Lyon Saint Exupéry en Dauphiné;38;France;rpc_arrivee, rpc_depart;Auvergne-Rhône-Alpes;Isère;Tour-du-Pin;Villette-d'Anthon;45.78776222687034;5.101949212544678;VILLETTE D ANTHON, France
INSEE_38558;38558;Villette-de-Vienne;Communauté d'agglomération Vienne Condrieu;38;France;rpc_arrivee, rpc_depart;Auvergne-Rhône-Alpes;Isère;Vienne;Villette-de-Vienne;45.58826041405712;4.9109030747981475;VILLETTE DE VIENNE, France
INSEE_38563;38563;Voiron;Communauté d'agglomération du Pays Voironnais;38;France;rpc_arrivee, rpc_depart;Auvergne-Rhône-Alpes;Isère;Grenoble;Voiron;45.38047297183019;5.5869481021104175;VOIRON, France
INSEE_38565;38565;Voreppe;Communauté d'agglomération du Pays Voironnais;38;France;rpc_arrivee, rpc_depart;Auvergne-Rhône-Alpes;Isère;Grenoble;Voreppe;45.28611340498982;5.641731072577112;VOREPPE, France
INSEE_39333;39333;Moirans-en-Montagne;Communauté de communes Terre d'Émeraude Communauté;39;France;rpc_depart;Bourgogne-Franche-Comté;Jura;Saint-Claude;Moirans-en-Montagne;46.4417880441555;5.736910185382088;MOIRANS EN MONTAGNE, France
INSEE_42005;42005;Andrézieux-Bouthéon;Saint-Etienne Métropole;42;France;rpc_arrivee, rpc_depart;Auvergne-Rhône-Alpes;Loire;Saint-Étienne;Andrézieux-Bouthéon;45.535253524360954;4.277271024315215;ANDREZIEUX BOUTHEON, France
INSEE_42011;42011;Balbigny;Communauté de communes de Forez-Est;42;France;rpc_arrivee, rpc_depart;Auvergne-Rhône-Alpes;Loire;Roanne;Balbigny;45.8299479443612;4.181347108254622;BALBIGNY, France
INSEE_42095;42095;Firminy;Saint-Etienne Métropole;42;France;rpc_arrivee, rpc_depart;Auvergne-Rhône-Alpes;Loire;Saint-Étienne;Firminy;45.38265417679284;4.289486012744157;FIRMINY, France
INSEE_42103;42103;La Grand-Croix;Saint-Etienne Métropole;42;France;rpc_arrivee, rpc_depart;Auvergne-Rhône-Alpes;Loire;Saint-Étienne;Grand-Croix;45.50417503491258;4.55691601972269;LA GRAND CROIX, France
INSEE_42110;42110;L'Horme;Saint-Etienne Métropole;42;France;rpc_arrivee, rpc_depart;Auvergne-Rhône-Alpes;Loire;Saint-Étienne;Horme;45.49348917097092;4.543289632134356;L HORME, France
INSEE_42123;42123;Lorette;Saint-Etienne Métropole;42;France;rpc_arrivee, rpc_depart;Auvergne-Rhône-Alpes;Loire;Saint-Étienne;Lorette;45.50881225390707;4.581906753188754;LORETTE, France
INSEE_42186;42186;Rive-de-Gier;Saint-Etienne Métropole;42;France;rpc_arrivee, rpc_depart;Auvergne-Rhône-Alpes;Loire;Saint-Étienne;Rive-de-Gier;45.52113614891955;4.617475760081464;RIVE DE GIER, France
INSEE_42187;42187;Roanne;Communauté d'agglomération Roannais Agglomération;42;France;rpc_depart;Auvergne-Rhône-Alpes;Loire;Roanne;Roanne;46.044302770303695;4.0797384822403;ROANNE, France
INSEE_42207;42207;Saint-Chamond;Saint-Etienne Métropole;42;France;rpc_arrivee, rpc_depart;Auvergne-Rhône-Alpes;Loire;Saint-Étienne;Saint-Chamond;45.46868551727182;4.508207438807258;ST CHAMOND, France
INSEE_42218;42218;Saint-Étienne;Saint-Etienne Métropole;42;France;rpc_arrivee, rpc_depart;Auvergne-Rhône-Alpes;Loire;Saint-Étienne;Saint-Étienne;45.42410391871658;4.366467257037207;ST ETIENNE, France
INSEE_42225;42225;Genilac;Saint-Etienne Métropole;42;France;rpc_arrivee, rpc_depart;Auvergne-Rhône-Alpes;Loire;Saint-Étienne;Genilac;45.539525535804685;4.574968046591858;GENILAC, France
INSEE_42234;42234;Saint-Héand;Saint-Etienne Métropole;42;France;rpc_arrivee, rpc_depart;Auvergne-Rhône-Alpes;Loire;Saint-Étienne;Saint-Héand;45.531682478974076;4.384098992552701;ST HEAND, France
INSEE_42275;42275;Saint-Priest-en-Jarez;Saint-Etienne Métropole;42;France;rpc_arrivee, rpc_depart;Auvergne-Rhône-Alpes;Loire;Saint-Étienne;Saint-Priest-en-Jarez;45.473998064283954;4.370847445310176;ST PRIEST EN JAREZ, France
INSEE_42302;42302;Sorbiers;Saint-Etienne Métropole;42;France;rpc_arrivee;Auvergne-Rhône-Alpes;Loire;Saint-Étienne;Sorbiers;45.499450380419475;4.435748189496131;SORBIERS, France
INSEE_42305;42305;La Talaudière;Saint-Etienne Métropole;42;France;rpc_arrivee, rpc_depart;Auvergne-Rhône-Alpes;Loire;Saint-Étienne;Talaudière;45.47747617019617;4.425713684136019;LA TALAUDIERE, France
INSEE_43012;43012;Aurec-sur-Loire;Communauté de communes Loire et Semène;43;France;rpc_arrivee;Auvergne-Rhône-Alpes;Haute-Loire;Yssingeaux;Aurec-sur-Loire;45.36682250637614;4.203431440016393;AUREC SUR LOIRE, France
INSEE_69003;69003;Albigny-sur-Saône;Métropole de Lyon;69;France;rpc_arrivee, rpc_depart;Auvergne-Rhône-Alpes;Rhône;Lyon;Albigny-sur-Saône;45.86658639194704;4.828356707603269;ALBIGNY SUR SAONE, France
INSEE_69006;69006;Amplepuis;Communauté d'agglomération de l'Ouest Rhodanien;69;France;rpc_arrivee, rpc_depart;Auvergne-Rhône-Alpes;Rhône;Villefranche-sur-Saône;Amplepuis;45.96598139306361;4.317004046836383;AMPLEPUIS, France
INSEE_69007;69007;Ampuis;Communauté d'agglomération Vienne Condrieu;69;France;rpc_arrivee, rpc_depart;Auvergne-Rhône-Alpes;Rhône;Lyon;Ampuis;45.503435734903384;4.807913738572225;AMPUIS, France
INSEE_69009;69009;Anse;Communauté de communes Beaujolais Pierres Dorées;69;France;rpc_arrivee, rpc_depart;Auvergne-Rhône-Alpes;Rhône;Villefranche-sur-Saône;Anse;45.94508657561943;4.704939091985324;ANSE, France
INSEE_69010;69010;L'Arbresle;Communauté de communes du Pays de l'Arbresle (CCPA);69;France;rpc_arrivee, rpc_depart;Auvergne-Rhône-Alpes;Rhône;Villefranche-sur-Saône;Arbresle;45.83470704938021;4.610232450973638;L ARBRESLE, France
INSEE_69013;69013;Arnas;Communauté d'agglomération Villefranche Beaujolais Saône;69;France;rpc_arrivee, rpc_depart;Auvergne-Rhône-Alpes;Rhône;Villefranche-sur-Saône;Arnas;46.01935426328712;4.710236195775769;ARNAS, France
INSEE_69019;69019;Belleville-en-Beaujolais;Communauté de communes Saône-Beaujolais;69;France;rpc_arrivee, rpc_depart;Auvergne-Rhône-Alpes;Rhône;Villefranche-sur-Saône;Belleville-en-Beaujolais;46.114472887940316;4.7291072746259895;BELLEVILLE EN BEAUJOLAIS, France
INSEE_69020;69020;Belmont-d'Azergues;Communauté de communes Beaujolais Pierres Dorées;69;France;rpc_arrivee, rpc_depart;Auvergne-Rhône-Alpes;Rhône;Villefranche-sur-Saône;Belmont-d'Azergues;45.867349292160185;4.668500075974622;BELMONT D AZERGUES, France
INSEE_69021;69021;Bessenay;Communauté de communes du Pays de l'Arbresle (CCPA);69;France;rpc_arrivee, rpc_depart;Auvergne-Rhône-Alpes;Rhône;Villefranche-sur-Saône;Bessenay;45.77120474662273;4.54840238423939;BESSENAY, France
INSEE_69023;69023;Blacé;Communauté d'agglomération Villefranche Beaujolais Saône;69;France;rpc_arrivee, rpc_depart;Auvergne-Rhône-Alpes;Rhône;Villefranche-sur-Saône;Blacé;46.03642797519701;4.630417115149625;BLACE, France
INSEE_69024;69024;Val d'Oingt;Communauté de communes Beaujolais Pierres Dorées;69;France;rpc_arrivee, rpc_depart;Auvergne-Rhône-Alpes;Rhône;Villefranche-sur-Saône;Val d'Oingt;45.93861746271021;4.566799170093339;VAL D OINGT, France
INSEE_69027;69027;Brignais;Communauté de communes de la Vallée du Garon (CCVG);69;France;rpc_arrivee, rpc_depart;Auvergne-Rhône-Alpes;Rhône;Lyon;Brignais;45.675080337076835;4.752676603998863;BRIGNAIS, France
INSEE_69028;69028;Brindas;Communauté de communes des Vallons du Lyonnais (CCVL);69;France;rpc_arrivee, rpc_depart;Auvergne-Rhône-Alpes;Rhône;Lyon;Brindas;45.71827647163428;4.70296721660811;BRINDAS, France
INSEE_69029;69029;Bron;Métropole de Lyon;69;France;chantiers, comptage_sites, rpc_arrivee, rpc_depart, stations_taxi;Auvergne-Rhône-Alpes;Rhône;Lyon;Bron;45.73548522963891;4.9116217189189;BRON, France
INSEE_69031;69031;Brussieu;Communauté de communes des Monts du Lyonnais;69;France;rpc_arrivee, rpc_depart;Auvergne-Rhône-Alpes;Rhône;Lyon;Brussieu;45.74496232710487;4.520085238553907;BRUSSIEU, France
INSEE_69032;69032;Bully;Communauté de communes du Pays de l'Arbresle (CCPA);69;France;rpc_arrivee, rpc_depart;Auvergne-Rhône-Alpes;Rhône;Villefranche-sur-Saône;Bully;45.85950027784423;4.578551367171206;BULLY, France
INSEE_69033;69033;Cailloux-sur-Fontaines;Métropole de Lyon;69;France;rpc_depart;Auvergne-Rhône-Alpes;Rhône;Lyon;Cailloux-sur-Fontaines;45.85922051190859;4.881729356928224;CAILLOUX SUR FONTAINES, France
INSEE_69034;69034;Caluire-et-Cuire;Métropole de Lyon;69;France;chantiers, comptage_sites, rpc_arrivee, rpc_depart, stations_taxi;Auvergne-Rhône-Alpes;Rhône;Lyon;Caluire-et-Cuire;45.79860966216707;4.849405601374612;CALUIRE ET CUIRE, France
INSEE_69040;69040;Champagne-au-Mont-d'Or;Métropole de Lyon;69;France;comptage_sites, rpc_arrivee, rpc_depart, stations_taxi;Auvergne-Rhône-Alpes;Rhône;Lyon;Champagne-au-Mont-d'Or;45.80060731341638;4.786353026270193;CHAMPAGNE AU MONT D OR, France
INSEE_69043;69043;Chaponost;Communauté de communes de la Vallée du Garon (CCVG);69;France;rpc_arrivee, rpc_depart;Auvergne-Rhône-Alpes;Rhône;Lyon;Chaponost;45.70891401359438;4.745243030716363;CHAPONOST, France
INSEE_69044;69044;Charbonnières-les-Bains;Métropole de Lyon;69;France;rpc_arrivee, rpc_depart, stations_taxi;Auvergne-Rhône-Alpes;Rhône;Lyon;Charbonnières-les-Bains;45.779167653680986;4.743012118844622;CHARBONNIERES LES BAINS, France
INSEE_69046;69046;Charly;Métropole de Lyon;69;France;rpc_arrivee, rpc_depart;Auvergne-Rhône-Alpes;Rhône;Lyon;Charly;45.65266259652766;4.787087490444932;CHARLY, France
INSEE_69049;69049;Chasselay;Communauté de communes Beaujolais Pierres Dorées;69;France;rpc_arrivee, rpc_depart;Auvergne-Rhône-Alpes;Rhône;Villefranche-sur-Saône;Chasselay;45.87331020301939;4.769946749198944;CHASSELAY, France
INSEE_69050;69050;Châtillon;Communauté de communes Beaujolais Pierres Dorées;69;France;rpc_arrivee, rpc_depart;Auvergne-Rhône-Alpes;Rhône;Villefranche-sur-Saône;Châtillon;45.87199505349121;4.648683528566952;CHATILLON, France
INSEE_69051;69051;Chaussan;Communauté de communes du Pays Mornantais (COPAMO);69;France;rpc_depart;Auvergne-Rhône-Alpes;Rhône;Lyon;Chaussan;45.638672845897375;4.633234621682042;CHAUSSAN, France
INSEE_69052;69052;Chazay-d'Azergues;Communauté de communes Beaujolais Pierres Dorées;69;France;rpc_arrivee, rpc_depart;Auvergne-Rhône-Alpes;Rhône;Villefranche-sur-Saône;Chazay-d'Azergues;45.87434113241178;4.710039916522323;CHAZAY D AZERGUES, France
INSEE_69057;69057;Chevinay;Communauté de communes du Pays de l'Arbresle (CCPA);69;France;rpc_arrivee, rpc_depart;Auvergne-Rhône-Alpes;Rhône;Villefranche-sur-Saône;Chevinay;45.77668824775789;4.598771987316686;CHEVINAY, France
INSEE_69058;69058;Chiroubles;Communauté de communes Saône-Beaujolais;69;France;rpc_arrivee, rpc_depart;Auvergne-Rhône-Alpes;Rhône;Villefranche-sur-Saône;Chiroubles;46.185304665406036;4.649466679617136;CHIROUBLES, France
INSEE_69059;69059;Civrieux-d'Azergues;Communauté de communes Beaujolais Pierres Dorées;69;France;rpc_arrivee, rpc_depart;Auvergne-Rhône-Alpes;Rhône;Villefranche-sur-Saône;Civrieux-d'Azergues;45.85729204731495;4.712069666748944;CIVRIEUX D AZERGUES, France
INSEE_69063;69063;Collonges-au-Mont-d'Or;Métropole de Lyon;69;France;rpc_arrivee, rpc_depart;Auvergne-Rhône-Alpes;Rhône;Lyon;Collonges-au-Mont-d'Or;45.81883798183253;4.8424866981994334;COLLONGES AU MONT D OR, France
INSEE_69064;69064;Condrieu;Communauté d'agglomération Vienne Condrieu;69;France;rpc_arrivee, rpc_depart;Auvergne-Rhône-Alpes;Rhône;Lyon;Condrieu;45.47475222991541;4.751607432104724;CONDRIEU, France
INSEE_69069;69069;Craponne;Métropole de Lyon;69;France;comptage_sites, rpc_arrivee, rpc_depart;Auvergne-Rhône-Alpes;Rhône;Lyon;Craponne;45.7456141100455;4.7294349122169965;CRAPONNE, France
INSEE_69070;69070;Cublize;Communauté d'agglomération de l'Ouest Rhodanien;69;France;rpc_arrivee;Auvergne-Rhône-Alpes;Rhône;Villefranche-sur-Saône;Cublize;46.02436650591669;4.39212163597799;CUBLIZE, France
INSEE_69071;69071;Curis-au-Mont-d'Or;Métropole de Lyon;69;France;rpc_arrivee, rpc_depart;Auvergne-Rhône-Alpes;Rhône;Lyon;Curis-au-Mont-d'Or;45.86817486433429;4.82011094840675;CURIS AU MONT D OR, France
INSEE_69072;69072;Dardilly;Métropole de Lyon;69;France;chantiers, comptage_sites, rpc_arrivee, rpc_depart, stations_taxi;Auvergne-Rhône-Alpes;Rhône;Lyon;Dardilly;45.81332008808138;4.746557128680754;DARDILLY, France
INSEE_69076;69076;Dommartin;Communauté de communes du Pays de l'Arbresle (CCPA);69;France;rpc_arrivee, rpc_depart;Auvergne-Rhône-Alpes;Rhône;Villefranche-sur-Saône;Dommartin;45.83723879787378;4.712205106682566;DOMMARTIN, France
INSEE_69077;69077;Dracé;Communauté de communes Saône-Beaujolais;69;France;rpc_arrivee, rpc_depart;Auvergne-Rhône-Alpes;Rhône;Villefranche-sur-Saône;Dracé;46.15404084022692;4.773020677555692;DRACE, France
INSEE_69080;69080;Échalas;Communauté d'agglomération Vienne Condrieu;69;France;rpc_arrivee, rpc_depart;Auvergne-Rhône-Alpes;Rhône;Lyon;Échalas;45.55009449607141;4.72944658428585;ECHALAS, France
INSEE_69081;69081;Écully;Métropole de Lyon;69;France;rpc_arrivee, rpc_depart, stations_taxi;Auvergne-Rhône-Alpes;Rhône;Lyon;Écully;45.78222894742478;4.7737210086890425;ECULLY, France
INSEE_69085;69085;Fleurieu-sur-Saône;Métropole de Lyon;69;France;comptage_sites, rpc_arrivee, rpc_depart, stations_taxi;Auvergne-Rhône-Alpes;Rhône;Lyon;Fleurieu-sur-Saône;45.85822641562001;4.856579498785908;FLEURIEU SUR SAONE, France
INSEE_69086;69086;Fleurieux-sur-l'Arbresle;Communauté de communes du Pays de l'Arbresle (CCPA);69;France;rpc_arrivee, rpc_depart;Auvergne-Rhône-Alpes;Rhône;Villefranche-sur-Saône;Fleurieux-sur-l'Arbresle;45.84059850519454;4.6484264891915785;FLEURIEUX SUR L ARBRESLE, France
INSEE_69088;69088;Fontaines-sur-Saône;Métropole de Lyon;69;France;chantiers, rpc_arrivee, rpc_depart, stations_taxi;Auvergne-Rhône-Alpes;Rhône;Lyon;Fontaines-sur-Saône;45.82680788160587;4.853685668990346;FONTAINES SUR SAONE, France
INSEE_69089;69089;Francheville;Métropole de Lyon;69;France;rpc_arrivee, rpc_depart;Auvergne-Rhône-Alpes;Rhône;Lyon;Francheville;45.73857174193427;4.753673127983245;FRANCHEVILLE, France
INSEE_69090;69090;Frontenas;CC Beaujolais Pierres Dorées;69;France;rpc_arrivee, rpc_depart;Auvergne-Rhône-Alpes;Rhône;Villefranche-sur-Saône;Frontenas;45.91857959149399;4.631996275255805;FRONTENAS, France
INSEE_69091;69091;Givors;Métropole de Lyon;69;France;comptage_sites, rpc_arrivee, rpc_depart, stations_taxi;Auvergne-Rhône-Alpes;Rhône;Lyon;Givors;45.58448853820131;4.75608813206243;GIVORS, France
INSEE_69092;69092;Gleizé;Communauté d'agglomération Villefranche Beaujolais Saône;69;France;rpc_arrivee, rpc_depart;Auvergne-Rhône-Alpes;Rhône;Villefranche-sur-Saône;Gleizé;45.9914805648684;4.6883337062071995;GLEIZE, France
INSEE_69093;69093;Grandris;Communauté d'agglomération de l'Ouest Rhodanien;69;France;rpc_arrivee, rpc_depart;Auvergne-Rhône-Alpes;Rhône;Villefranche-sur-Saône;Grandris;46.03400059871302;4.45985326545061;GRANDRIS, France
INSEE_69094;69094;Grézieu-la-Varenne;Communauté de communes des Vallons du Lyonnais (CCVL);69;France;rpc_arrivee, rpc_depart;Auvergne-Rhône-Alpes;Rhône;Lyon;Grézieu-la-Varenne;45.74688259640503;4.6799458950891974;GREZIEU LA VARENNE, France
INSEE_69096;69096;Grigny;Métropole de Lyon;69;France;rpc_arrivee, rpc_depart;Auvergne-Rhône-Alpes;Rhône;Lyon;Grigny-sur-Rhône;45.610369017367915;4.785813229142433;GRIGNY SUR RHONE, France
INSEE_69097;69097;Les Haies;Communauté d'agglomération Vienne Condrieu;69;France;rpc_arrivee, rpc_depart;Auvergne-Rhône-Alpes;Rhône;Lyon;Haies;45.51221229904057;4.740075349274269;LES HAIES, France
INSEE_69100;69100;Irigny;Métropole de Lyon;69;France;comptage_sites, rpc_arrivee, rpc_depart;Auvergne-Rhône-Alpes;Rhône;Lyon;Irigny;45.67474066960081;4.814332306872947;IRIGNY, France
INSEE_69106;69106;Lachassagne;Communauté de communes Beaujolais Pierres Dorées;69;France;rpc_arrivee, rpc_depart;Auvergne-Rhône-Alpes;Rhône;Villefranche-sur-Saône;Lachassagne;45.92641113098561;4.677949161711956;LACHASSAGNE, France
INSEE_69109;69109;Lantignié;CC Saône-Beaujolais;69;France;rpc_depart;Auvergne-Rhône-Alpes;Rhône;Villefranche-sur-Saône;Lantignié;46.15843212899846;4.61743785215487;LANTIGNIE, France
INSEE_69111;69111;Légny;Communauté de communes Beaujolais Pierres Dorées;69;France;rpc_arrivee, rpc_depart;Auvergne-Rhône-Alpes;Rhône;Villefranche-sur-Saône;Légny;45.905041487628914;4.574208351366416;LEGNY, France
INSEE_69112;69112;Lentilly;Communauté de communes du Pays de l'Arbresle (CCPA);69;France;rpc_arrivee, rpc_depart;Auvergne-Rhône-Alpes;Rhône;Villefranche-sur-Saône;Lentilly;45.816605453576585;4.669101217660032;LENTILLY, France
INSEE_69115;69115;Limas;Communauté d'agglomération Villefranche Beaujolais Saône;69;France;rpc_arrivee, rpc_depart;Auvergne-Rhône-Alpes;Rhône;Villefranche-sur-Saône;Limas;45.971661973067214;4.719559079789596;LIMAS, France
INSEE_69116;69116;Limonest;Métropole de Lyon;69;France;rpc_arrivee, rpc_depart, stations_taxi;Auvergne-Rhône-Alpes;Rhône;Lyon;Limonest;45.82665006675707;4.76818293737479;LIMONEST, France
INSEE_69117;69117;Lissieu;Métropole de Lyon;69;France;chantiers, rpc_arrivee, rpc_depart, stations_taxi;Auvergne-Rhône-Alpes;Rhône;Lyon;Lissieu;45.85821507576305;4.749606076568602;LISSIEU, France
INSEE_69118;69118;Loire-sur-Rhône;Communauté d'agglomération Vienne Condrieu;69;France;rpc_arrivee, rpc_depart;Auvergne-Rhône-Alpes;Rhône;Lyon;Loire-sur-Rhône;45.54824917412572;4.784668403757012;LOIRE SUR RHONE, France
INSEE_69120;69120;69120;;69;France;comptage_sites;Auvergne-Rhône-Alpes;Rhône;Lyon;Longessaigne;45.7833162858701;4.427729296623985;LONGESSAIGNE, France
INSEE_69121;69121;Lozanne;Communauté de communes Beaujolais Pierres Dorées;69;France;rpc_arrivee, rpc_depart;Auvergne-Rhône-Alpes;Rhône;Villefranche-sur-Saône;Lozanne;45.85296615950104;4.684565358811966;LOZANNE, France
INSEE_69122;69122;Lucenay;Communauté de communes Beaujolais Pierres Dorées;69;France;rpc_arrivee, rpc_depart;Auvergne-Rhône-Alpes;Rhône;Villefranche-sur-Saône;Lucenay;45.913803155334975;4.709519127599601;LUCENAY, France
INSEE_69123;69123;69123;;69;France;comptage_sites;Auvergne-Rhône-Alpes;Rhône;Lyon;Lyon;45.758171067624186;4.836102442889715;LYON, France
INSEE_69126;69126;Marcy;Communauté de communes Beaujolais Pierres Dorées;69;France;rpc_arrivee, rpc_depart;Auvergne-Rhône-Alpes;Rhône;Villefranche-sur-Saône;Marcy;45.91405471500893;4.675467634714442;MARCY, France
INSEE_69127;69127;Marcy-l'Étoile;Métropole de Lyon;69;France;comptage_sites, rpc_arrivee, rpc_depart;Auvergne-Rhône-Alpes;Rhône;Lyon;Marcy-l'Étoile;45.78549447049211;4.712915609900678;MARCY L ETOILE, France
INSEE_69131;69131;Messimy;Communauté de communes des Vallons du Lyonnais (CCVL);69;France;rpc_arrivee, rpc_depart;Auvergne-Rhône-Alpes;Rhône;Lyon;Messimy;45.69775745353666;4.674778841111586;MESSIMY, France
INSEE_69133;69133;Millery;Communauté de communes de la Vallée du Garon (CCVG);69;France;rpc_arrivee, rpc_depart;Auvergne-Rhône-Alpes;Rhône;Lyon;Millery;45.63066542829213;4.780972273053843;MILLERY, France
INSEE_69136;69136;Montagny;Communauté de communes de la Vallée du Garon (CCVG);69;France;rpc_arrivee, rpc_depart;Auvergne-Rhône-Alpes;Rhône;Lyon;Montagny;45.62958862406317;4.751987368318275;MONTAGNY, France
INSEE_69140;69140;Morancé;CC Beaujolais Pierres Dorées;69;France;rpc_arrivee;Auvergne-Rhône-Alpes;Rhône;Villefranche-sur-Saône;Morancé;45.8938399142436;4.701630437459921;MORANCE, France
INSEE_69141;69141;Mornant;Communauté de communes du Pays Mornantais (COPAMO);69;France;rpc_arrivee, rpc_depart;Auvergne-Rhône-Alpes;Rhône;Lyon;Mornant;45.61615609165038;4.674740509442169;MORNANT, France
INSEE_69142;69142;La Mulatière;Métropole de Lyon;69;France;rpc_arrivee, rpc_depart;Auvergne-Rhône-Alpes;Rhône;Lyon;Mulatière;45.73378190028231;4.811800813025862;LA MULATIERE, France
INSEE_69143;69143;Neuville-sur-Saône;Métropole de Lyon;69;France;rpc_arrivee, rpc_depart, stations_taxi;Auvergne-Rhône-Alpes;Rhône;Lyon;Neuville-sur-Saône;45.882128512528666;4.840436021924788;NEUVILLE SUR SAONE, France
INSEE_69148;69148;Orliénas;Communauté de communes du Pays Mornantais (COPAMO);69;France;rpc_arrivee, rpc_depart;Auvergne-Rhône-Alpes;Rhône;Lyon;Orliénas;45.660874600723886;4.720743935635853;ORLIENAS, France
INSEE_69149;69149;Oullins-Pierre-Bénite;Métropole de Lyon;69;France;rpc_arrivee, rpc_depart, stations_taxi;Auvergne-Rhône-Alpes;Rhône;Lyon;Oullins-Pierre-Bénite;45.70801978571337;4.811191426445426;OULLINS PIERRE BENITE, France
INSEE_69151;69151;Le Perréon;CA Villefranche Beaujolais Saône;69;France;rpc_arrivee, rpc_depart;Auvergne-Rhône-Alpes;Rhône;Villefranche-sur-Saône;Perréon;46.06906787391249;4.586949174278985;LE PERREON, France
INSEE_69153;69153;Poleymieux-au-Mont-d'Or;Métropole de Lyon;69;France;rpc_arrivee, rpc_depart;Auvergne-Rhône-Alpes;Rhône;Lyon;Poleymieux-au-Mont-d'Or;45.856051841758386;4.792713585617792;POLEYMIEUX AU MONT D OR, France
INSEE_69154;69154;Pollionnay;Communauté de communes des Vallons du Lyonnais (CCVL);69;France;rpc_arrivee, rpc_depart;Auvergne-Rhône-Alpes;Rhône;Lyon;Pollionnay;45.77074174643358;4.658468495102271;POLLIONNAY, France
INSEE_69156;69156;Pommiers;Communauté de communes Beaujolais Pierres Dorées;69;France;rpc_arrivee, rpc_depart;Auvergne-Rhône-Alpes;Rhône;Villefranche-sur-Saône;Pommiers;45.95812259595383;4.692762922606422;POMMIERS, France
INSEE_69157;69157;Vindry-sur-Turdine;Communauté d'agglomération de l'Ouest Rhodanien;69;France;rpc_arrivee, rpc_depart;Auvergne-Rhône-Alpes;Rhône;Villefranche-sur-Saône;Vindry-sur-Turdine;45.888629385636186;4.494810252157659;VINDRY SUR TURDINE, France
INSEE_69163;69163;Quincieux;Métropole de Lyon;69;France;rpc_arrivee, rpc_depart;Auvergne-Rhône-Alpes;Rhône;Lyon;Quincieux;45.91683114486575;4.77239170291647;QUINCIEUX, France
INSEE_69168;69168;Rochetaillée-sur-Saône;;69;France;stations_taxi;Auvergne-Rhône-Alpes;Rhône;Lyon;Rochetaillée-sur-Saône;45.842695491529305;4.839623672675019;ROCHETAILLEE SUR SAONE, France
INSEE_69171;69171;Sain-Bel;Communauté de communes du Pays de l'Arbresle (CCPA);69;France;rpc_arrivee, rpc_depart;Auvergne-Rhône-Alpes;Rhône;Villefranche-sur-Saône;Sain-Bel;45.81147829594275;4.60157927838681;SAIN BEL, France
INSEE_69174;69174;Les Sauvages;CA de l'Ouest Rhodanien;69;France;rpc_depart;Auvergne-Rhône-Alpes;Rhône;Villefranche-sur-Saône;Sauvages;45.92454411312099;4.369537046950628;LES SAUVAGES, France
INSEE_69175;69175;Savigny;Communauté de communes du Pays de l'Arbresle (CCPA);69;France;rpc_arrivee, rpc_depart;Auvergne-Rhône-Alpes;Rhône;Villefranche-sur-Saône;Savigny;45.8174145803795;4.5599018092428985;SAVIGNY, France
INSEE_69176;69176;Soucieu-en-Jarrest;Communauté de communes du Pays Mornantais (COPAMO);69;France;rpc_arrivee, rpc_depart;Auvergne-Rhône-Alpes;Rhône;Lyon;Soucieu-en-Jarrest;45.67699259135414;4.690746605868769;SOUCIEU EN JARREST, France
INSEE_69177;69177;Sourcieux-les-Mines;Communauté de communes du Pays de l'Arbresle (CCPA);69;France;rpc_arrivee, rpc_depart;Auvergne-Rhône-Alpes;Rhône;Villefranche-sur-Saône;Sourcieux-les-Mines;45.797931418045444;4.6310937858097425;SOURCIEUX LES MINES, France
INSEE_69178;69178;Souzy;Communauté de communes des Monts du Lyonnais;69;France;rpc_arrivee, rpc_depart;Auvergne-Rhône-Alpes;Rhône;Lyon;Souzy;45.70268146946132;4.450533513367899;SOUZY, France
INSEE_69179;69179;Beauvallon;Communauté de communes du Pays Mornantais (COPAMO);69;France;rpc_arrivee, rpc_depart;Auvergne-Rhône-Alpes;Rhône;Lyon;Beauvallon;45.58978425592575;4.704123464121094;BEAUVALLON, France
INSEE_69188;69188;Saint-Clément-sur-Valsonne;Communauté d'agglomération de l'Ouest Rhodanien;69;France;rpc_arrivee, rpc_depart;Auvergne-Rhône-Alpes;Rhône;Villefranche-sur-Saône;Saint-Clément-sur-Valsonne;45.925978263813256;4.458500235597317;ST CLEMENT SUR VALSONNE, France
INSEE_69189;69189;Sainte-Colombe;Communauté d'agglomération Vienne Condrieu;69;France;rpc_arrivee, rpc_depart;Auvergne-Rhône-Alpes;Rhône;Lyon;Sainte-Colombe;45.52465090574657;4.858187554293785;STE COLOMBE, France
INSEE_69190;69190;Sainte-Consorce;Communauté de communes des Vallons du Lyonnais (CCVL);69;France;rpc_arrivee, rpc_depart;Auvergne-Rhône-Alpes;Rhône;Lyon;Sainte-Consorce;45.776533676913054;4.695855657115396;STE CONSORCE, France
INSEE_69191;69191;Saint-Cyr-au-Mont-d'Or;Métropole de Lyon;69;France;comptage_sites, rpc_arrivee, rpc_depart;Auvergne-Rhône-Alpes;Rhône;Lyon;Saint-Cyr-au-Mont-d'Or;45.82162331724493;4.816210914301844;ST CYR AU MONT D OR, France
INSEE_69194;69194;Saint-Didier-au-Mont-d'Or;Métropole de Lyon;69;France;chantiers, rpc_arrivee, rpc_depart, stations_taxi;Auvergne-Rhône-Alpes;Rhône;Lyon;Saint-Didier-au-Mont-d'Or;45.81591761519196;4.800317462621635;ST DIDIER AU MONT D OR, France
INSEE_69199;69199;Saint-Fons;Métropole de Lyon;69;France;chantiers, comptage_sites, rpc_arrivee, rpc_depart, stations_taxi;Auvergne-Rhône-Alpes;Rhône;Lyon;Saint-Fons;45.69971144901383;4.8513828324689605;ST FONS, France
INSEE_69201;69201;Sainte-Foy-l'Argentière;Communauté de communes des Monts du Lyonnais;69;France;rpc_arrivee, rpc_depart;Auvergne-Rhône-Alpes;Rhône;Lyon;Sainte-Foy-l'Argentière;45.7043744132788;4.470492331262447;STE FOY L ARGENTIERE, France
INSEE_69202;69202;Sainte-Foy-lès-Lyon;Métropole de Lyon;69;France;chantiers, rpc_arrivee, rpc_depart, stations_taxi;Auvergne-Rhône-Alpes;Rhône;Lyon;Sainte-Foy-lès-Lyon;45.73625220684905;4.792603828152037;STE FOY LES LYON, France
INSEE_69203;69203;Saint-Genis-l'Argentière;Communauté de communes des Monts du Lyonnais;69;France;rpc_arrivee, rpc_depart;Auvergne-Rhône-Alpes;Rhône;Lyon;Saint-Genis-l'Argentière;45.71447342483489;4.492580254228891;ST GENIS L ARGENTIERE, France
INSEE_69204;69204;Saint-Genis-Laval;Métropole de Lyon;69;France;comptage_sites, rpc_arrivee, rpc_depart, stations_taxi;Auvergne-Rhône-Alpes;Rhône;Lyon;Saint-Genis-Laval;45.692225366557125;4.792861636217612;ST GENIS LAVAL, France
INSEE_69205;69205;Saint-Genis-les-Ollières;Métropole de Lyon;69;France;rpc_arrivee, rpc_depart;Auvergne-Rhône-Alpes;Rhône;Lyon;Saint-Genis-les-Ollières;45.76144020548203;4.724848505283151;ST GENIS LES OLLIERES, France
INSEE_69206;69206;Saint-Georges-de-Reneins;Communauté de communes Saône-Beaujolais;69;France;rpc_arrivee, rpc_depart;Auvergne-Rhône-Alpes;Rhône;Villefranche-sur-Saône;Saint-Georges-de-Reneins;46.0586580491196;4.7163688361191465;ST GEORGES DE RENEINS, France
INSEE_69207;69207;Saint-Germain-au-Mont-d'Or;Métropole de Lyon;69;France;rpc_arrivee, rpc_depart, stations_taxi;Auvergne-Rhône-Alpes;Rhône;Lyon;Saint-Germain-au-Mont-d'Or;45.88416462492462;4.8036313660511825;ST GERMAIN AU MONT D OR, France
INSEE_69208;69208;Saint-Germain-Nuelles;Communauté de communes du Pays de l'Arbresle (CCPA);69;France;rpc_arrivee, rpc_depart;Auvergne-Rhône-Alpes;Rhône;Villefranche-sur-Saône;Saint-Germain-Nuelles;45.86037056202768;4.616724518770644;ST GERMAIN NUELLES, France
INSEE_69219;69219;Saint-Laurent-d'Agny;Communauté de communes du Pays Mornantais (COPAMO);69;France;rpc_arrivee, rpc_depart;Auvergne-Rhône-Alpes;Rhône;Lyon;Saint-Laurent-d'Agny;45.640609143058185;4.682766181161128;ST LAURENT D AGNY, France
INSEE_69220;69220;Saint-Laurent-de-Chamousset;Communauté de communes des Monts du Lyonnais;69;France;rpc_arrivee, rpc_depart;Auvergne-Rhône-Alpes;Rhône;Lyon;Saint-Laurent-de-Chamousset;45.740203033984855;4.468844354317159;ST LAURENT DE CHAMOUSSET, France
INSEE_69227;69227;Saint-Martin-en-Haut;Communauté de communes des Monts du Lyonnais;69;France;rpc_arrivee, rpc_depart;Auvergne-Rhône-Alpes;Rhône;Lyon;Saint-Martin-en-Haut;45.658283562500316;4.556114858897874;ST MARTIN EN HAUT, France
INSEE_69228;69228;Chabanière;Communauté de communes du Pays Mornantais (COPAMO);69;France;rpc_arrivee, rpc_depart;Auvergne-Rhône-Alpes;Rhône;Lyon;Chabanière;45.58531908104529;4.6187348378466915;CHABANIERE, France
INSEE_69231;69231;Saint-Pierre-la-Palud;Communauté de communes du Pays de l'Arbresle (CCPA);69;France;rpc_arrivee, rpc_depart;Auvergne-Rhône-Alpes;Rhône;Villefranche-sur-Saône;Saint-Pierre-la-Palud;45.783249767141214;4.616346414791797;ST PIERRE LA PALUD, France
INSEE_69233;69233;Saint-Romain-au-Mont-d'Or;Métropole de Lyon;69;France;rpc_arrivee;Auvergne-Rhône-Alpes;Rhône;Lyon;Saint-Romain-au-Mont-d'Or;45.83545035442925;4.822389397706658;ST ROMAIN AU MONT D OR, France
INSEE_69235;69235;Saint-Romain-en-Gal;Communauté d'agglomération Vienne Condrieu;69;France;rpc_arrivee, rpc_depart;Auvergne-Rhône-Alpes;Rhône;Lyon;Saint-Romain-en-Gal;45.540180275105655;4.830693069491714;ST ROMAIN EN GAL, France
INSEE_69236;69236;Saint-Romain-en-Gier;Communauté d'agglomération Vienne Condrieu;69;France;rpc_arrivee;Auvergne-Rhône-Alpes;Rhône;Lyon;Saint-Romain-en-Gier;45.56367354370161;4.706543366454907;ST ROMAIN EN GIER, France
INSEE_69238;69238;Saint-Symphorien-sur-Coise;Communauté de communes des Monts du Lyonnais;69;France;rpc_arrivee, rpc_depart;Auvergne-Rhône-Alpes;Rhône;Lyon;Saint-Symphorien-sur-Coise;45.63135787006078;4.445557652408089;ST SYMPHORIEN SUR COISE, France
INSEE_69242;69242;Taponas;CC Saône-Beaujolais;69;France;rpc_arrivee;Auvergne-Rhône-Alpes;Rhône;Villefranche-sur-Saône;Taponas;46.12378568139056;4.764846357326176;TAPONAS, France
INSEE_69243;69243;Tarare;Communauté d'agglomération de l'Ouest Rhodanien;69;France;rpc_arrivee, rpc_depart;Auvergne-Rhône-Alpes;Rhône;Villefranche-sur-Saône;Tarare;45.90705635502043;4.430208599603311;TARARE, France
INSEE_69244;69244;Tassin-la-Demi-Lune;Métropole de Lyon;69;France;chantiers, comptage_sites, rpc_arrivee, rpc_depart, stations_taxi;Auvergne-Rhône-Alpes;Rhône;Lyon;Tassin-la-Demi-Lune;45.763654035080364;4.75212982787286;TASSIN LA DEMI LUNE, France
INSEE_69246;69246;Theizé;Communauté de communes Beaujolais Pierres Dorées;69;France;rpc_arrivee, rpc_depart;Auvergne-Rhône-Alpes;Rhône;Villefranche-sur-Saône;Theizé;45.94181648475562;4.627718640136065;THEIZE, France
INSEE_69249;69249;Thurins;Communauté de communes des Vallons du Lyonnais (CCVL);69;France;rpc_arrivee, rpc_depart;Auvergne-Rhône-Alpes;Rhône;Lyon;Thurins;45.68085794995655;4.625180667734119;THURINS, France
INSEE_69250;69250;La Tour-de-Salvagny;Métropole de Lyon;69;France;comptage_sites, rpc_arrivee, rpc_depart, stations_taxi;Auvergne-Rhône-Alpes;Rhône;Lyon;Tour-de-Salvagny;45.808558280170075;4.712877848677202;LA TOUR DE SALVAGNY, France
INSEE_69252;69252;Trèves;Communauté d'agglomération Vienne Condrieu;69;France;rpc_arrivee, rpc_depart;Auvergne-Rhône-Alpes;Rhône;Lyon;Trèves;45.53575263964788;4.691837784269481;TREVES, France
INSEE_69253;69253;Tupin-et-Semons;Communauté d'agglomération Vienne Condrieu;69;France;rpc_arrivee;Auvergne-Rhône-Alpes;Rhône;Lyon;Tupin-et-Semons;45.49411640553082;4.777582915578679;TUPIN ET SEMONS, France
INSEE_69255;69255;Vaugneray;Communauté de communes des Vallons du Lyonnais (CCVL);69;France;rpc_arrivee, rpc_depart;Auvergne-Rhône-Alpes;Rhône;Lyon;Vaugneray;45.730016255448454;4.6501684754875825;VAUGNERAY, France
INSEE_69256;69256;Vaulx-en-Velin;Métropole de Lyon;69;France;chantiers, comptage_sites, rpc_arrivee, rpc_depart, stations_taxi;Auvergne-Rhône-Alpes;Rhône;Lyon;Vaulx-en-Velin;45.77755009188766;4.924965537329063;VAULX EN VELIN, France
INSEE_69259;69259;Vénissieux;Métropole de Lyon;69;France;chantiers, comptage_sites, rpc_arrivee, rpc_depart, stations_taxi;Auvergne-Rhône-Alpes;Rhône;Lyon;Vénissieux;45.70117022586701;4.880534974714355;VENISSIEUX, France
INSEE_69260;69260;Vernaison;Métropole de Lyon;69;France;rpc_arrivee, rpc_depart, stations_taxi;Auvergne-Rhône-Alpes;Rhône;Lyon;Vernaison;45.64638829718686;4.812062960751937;VERNAISON, France
INSEE_69264;69264;Villefranche-sur-Saône;Communauté d'agglomération Villefranche Beaujolais Saône;69;France;rpc_arrivee, rpc_depart;Auvergne-Rhône-Alpes;Rhône;Villefranche-sur-Saône;Villefranche-sur-Saône;45.98370343773577;4.7259588686812375;VILLEFRANCHE SUR SAONE, France
INSEE_69266;69266;Villeurbanne;Métropole de Lyon;69;France;chantiers, comptage_sites, rpc_arrivee, rpc_depart, stations_taxi;Auvergne-Rhône-Alpes;Rhône;Lyon;Villeurbanne;45.77187866028393;4.889827189332388;VILLEURBANNE, France
INSEE_69268;69268;Vourles;Communauté de communes de la Vallée du Garon (CCVG);69;France;rpc_arrivee, rpc_depart;Auvergne-Rhône-Alpes;Rhône;Lyon;Vourles;45.65693119030389;4.7691051234486945;VOURLES, France
INSEE_69270;69270;Chaponnay;Communauté de communes du Pays de l'Ozon;69;France;rpc_arrivee, rpc_depart;Auvergne-Rhône-Alpes;Rhône;Lyon;Chaponnay;45.63149245981836;4.958376422457276;CHAPONNAY, France
INSEE_69271;69271;Chassieu;Métropole de Lyon;69;France;chantiers, comptage_sites, rpc_arrivee, rpc_depart, stations_taxi;Auvergne-Rhône-Alpes;Rhône;Lyon;Chassieu;45.73656486177428;4.963825599451569;CHASSIEU, France
INSEE_69272;69272;Communay;Communauté de communes du Pays de l'Ozon;69;France;rpc_arrivee, rpc_depart;Auvergne-Rhône-Alpes;Rhône;Lyon;Communay;45.597658926281454;4.835921567174542;COMMUNAY, France
INSEE_69273;69273;Corbas;Métropole de Lyon;69;France;comptage_sites, rpc_arrivee, rpc_depart, stations_taxi;Auvergne-Rhône-Alpes;Rhône;Lyon;Corbas;45.66544735911923;4.910355790457196;CORBAS, France
INSEE_69275;69275;Décines-Charpieu;Métropole de Lyon;69;France;comptage_sites, rpc_arrivee, rpc_depart, stations_taxi;Auvergne-Rhône-Alpes;Rhône;Lyon;Décines-Charpieu;45.77591742939269;4.958953370640046;DECINES CHARPIEU, France
INSEE_69276;69276;Feyzin;Métropole de Lyon;69;France;comptage_sites, rpc_arrivee, rpc_depart;Auvergne-Rhône-Alpes;Rhône;Lyon;Feyzin;45.67363351830236;4.858900555336962;FEYZIN, France
INSEE_69277;69277;Genas;Communauté de communes de l'Est Lyonnais (CCEL);69;France;rpc_arrivee, rpc_depart;Auvergne-Rhône-Alpes;Rhône;Lyon;Genas;45.728551066886496;5.017225779197007;GENAS, France
INSEE_69278;69278;Genay;Métropole de Lyon;69;France;rpc_arrivee, rpc_depart, stations_taxi;Auvergne-Rhône-Alpes;Rhône;Lyon;Genay;45.89887610679127;4.838932809375882;GENAY, France
INSEE_69279;69279;Jonage;Métropole de Lyon;69;France;rpc_arrivee, rpc_depart;Auvergne-Rhône-Alpes;Rhône;Lyon;Jonage;45.78863847159158;5.0376772277556885;JONAGE, France
INSEE_69281;69281;Marennes;CC du Pays de l'Ozon;69;France;rpc_depart;Auvergne-Rhône-Alpes;Rhône;Lyon;Marennes;45.62484948481218;4.909712444433448;MARENNES, France
INSEE_69282;69282;Meyzieu;Métropole de Lyon;69;France;comptage_sites, rpc_arrivee, rpc_depart, stations_taxi;Auvergne-Rhône-Alpes;Rhône;Lyon;Meyzieu;45.778506971539485;5.011423660597346;MEYZIEU, France
INSEE_69283;69283;Mions;Métropole de Lyon;69;France;rpc_arrivee, rpc_depart, stations_taxi;Auvergne-Rhône-Alpes;Rhône;Lyon;Mions;45.66283815443506;4.946658354039101;MIONS, France
INSEE_69284;69284;Montanay;Métropole de Lyon;69;France;comptage_sites, rpc_arrivee, rpc_depart;Auvergne-Rhône-Alpes;Rhône;Lyon;Montanay;45.879329404880956;4.865686573097092;MONTANAY, France
INSEE_69285;69285;Pusignan;Communauté de communes de l'Est Lyonnais (CCEL);69;France;rpc_arrivee, rpc_depart;Auvergne-Rhône-Alpes;Rhône;Lyon;Pusignan;45.75714534657123;5.065866914104815;PUSIGNAN, France
INSEE_69286;69286;Rillieux-la-Pape;Métropole de Lyon;69;France;chantiers, comptage_sites, rpc_arrivee, rpc_depart, stations_taxi;Auvergne-Rhône-Alpes;Rhône;Lyon;Rillieux-la-Pape;45.826487176052936;4.8950492061194435;RILLIEUX LA PAPE, France
INSEE_69287;69287;Saint-Bonnet-de-Mure;Communauté de communes de l'Est Lyonnais (CCEL);69;France;rpc_arrivee, rpc_depart;Auvergne-Rhône-Alpes;Rhône;Lyon;Saint-Bonnet-de-Mure;45.69748929268201;5.024116029557629;ST BONNET DE MURE, France
INSEE_69288;69288;Saint-Laurent-de-Mure;Communauté de communes de l'Est Lyonnais (CCEL);69;France;rpc_arrivee, rpc_depart;Auvergne-Rhône-Alpes;Rhône;Lyon;Saint-Laurent-de-Mure;45.684172701453676;5.05971798174601;ST LAURENT DE MURE, France
INSEE_69289;69289;Saint-Pierre-de-Chandieu;Communauté de communes de l'Est Lyonnais (CCEL);69;France;rpc_arrivee, rpc_depart;Auvergne-Rhône-Alpes;Rhône;Lyon;Saint-Pierre-de-Chandieu;45.64709392883904;5.008496393633707;ST PIERRE DE CHANDIEU, France
INSEE_69290;69290;Saint-Priest;Métropole de Lyon;69;France;comptage_sites, rpc_arrivee, rpc_depart, stations_taxi;Auvergne-Rhône-Alpes;Rhône;Lyon;Saint-Priest;45.70136235109332;4.947433808576527;ST PRIEST, France
INSEE_69291;69291;Saint-Symphorien-d'Ozon;Communauté de communes du Pays de l'Ozon;69;France;rpc_arrivee, rpc_depart;Auvergne-Rhône-Alpes;Rhône;Lyon;Saint-Symphorien-d'Ozon;45.638563762550234;4.866595903165861;ST SYMPHORIEN D OZON, France
INSEE_69293;69293;Sathonay-Village;Métropole de Lyon;69;France;rpc_arrivee, rpc_depart;Auvergne-Rhône-Alpes;Rhône;Lyon;Sathonay-Village;45.83935890900788;4.88582297595312;SATHONAY VILLAGE, France
INSEE_69294;69294;Sérézin-du-Rhône;Communauté de communes du Pays de l'Ozon;69;France;rpc_arrivee, rpc_depart;Auvergne-Rhône-Alpes;Rhône;Lyon;Sérézin-du-Rhône;45.62853176969794;4.824815906995726;SEREZIN DU RHONE, France
INSEE_69295;69295;Simandres;Communauté de communes du Pays de l'Ozon;69;France;rpc_arrivee, rpc_depart;Auvergne-Rhône-Alpes;Rhône;Lyon;Simandres;45.611130810123356;4.871749945215589;SIMANDRES, France
INSEE_69296;69296;Solaize;Métropole de Lyon;69;France;comptage_sites, rpc_arrivee, rpc_depart;Auvergne-Rhône-Alpes;Rhône;Lyon;Solaize;45.64622094827091;4.833073029810901;SOLAIZE, France
INSEE_69297;69297;Ternay;Communauté de communes du Pays de l'Ozon;69;France;rpc_arrivee, rpc_depart;Auvergne-Rhône-Alpes;Rhône;Lyon;Ternay;45.60826232450741;4.802995900695339;TERNAY, France
INSEE_69298;69298;Toussieu;Communauté de communes de l'Est Lyonnais (CCEL);69;France;rpc_arrivee, rpc_depart;Auvergne-Rhône-Alpes;Rhône;Lyon;Toussieu;45.65851128108956;4.98193055529565;TOUSSIEU, France
INSEE_69299;69299;Colombier-Saugnieu;Communauté de communes de l'Est Lyonnais (CCEL);69;France;rpc_arrivee, rpc_depart;Auvergne-Rhône-Alpes;Rhône;Lyon;Colombier-Saugnieu;45.71736057143383;5.108403307867662;COLOMBIER SAUGNIEU, France
INSEE_69370;69370;69370;;69;France;comptage_sites;Auvergne-Rhône-Alpes;Rhône;Lyon;Saint-Didier-au-Mont-d'Or;45.81591761519196;4.800317462621635;ST DIDIER AU MONT D OR, France
INSEE_69381;69381;Lyon 1er Arrondissement;Métropole de Lyon;69;France;chantiers, comptage_sites, rpc_arrivee, rpc_depart, stations_taxi;Auvergne-Rhône-Alpes;Rhône;Lyon;Lyon 1er Arrondissement;45.770103986093666;4.826372955942867;LYON 01, France
INSEE_69382;69382;Lyon 2e Arrondissement;Métropole de Lyon;69;France;chantiers, comptage_sites, rpc_arrivee, rpc_depart, stations_taxi;Auvergne-Rhône-Alpes;Rhône;Lyon;Lyon 2e Arrondissement;45.74637017028923;4.826490567773009;LYON 02, France
INSEE_69383;69383;Lyon 3e Arrondissement;Métropole de Lyon;69;France;chantiers, comptage_sites, rpc_arrivee, rpc_depart, stations_taxi;Auvergne-Rhône-Alpes;Rhône;Lyon;Lyon 3e Arrondissement;45.751412679874804;4.868478074670612;LYON 03, France
INSEE_69384;69384;Lyon 4e Arrondissement;Métropole de Lyon;69;France;comptage_sites, rpc_arrivee, rpc_depart, stations_taxi;Auvergne-Rhône-Alpes;Rhône;Lyon;Lyon 4e Arrondissement;45.78050368744799;4.82599549470751;LYON 04, France
INSEE_69385;69385;Lyon 5e Arrondissement;Métropole de Lyon;69;France;chantiers, comptage_sites, rpc_arrivee, rpc_depart, stations_taxi;Auvergne-Rhône-Alpes;Rhône;Lyon;Lyon 5e Arrondissement;45.75602914260185;4.801174763110998;LYON 05, France
INSEE_69386;69386;Lyon 6e Arrondissement;Métropole de Lyon;69;France;chantiers, comptage_sites, rpc_arrivee, rpc_depart, stations_taxi;Auvergne-Rhône-Alpes;Rhône;Lyon;Lyon 6e Arrondissement;45.77526322291706;4.854765657402826;LYON 06, France
INSEE_69387;69387;Lyon 7e Arrondissement;Métropole de Lyon;69;France;chantiers, comptage_sites, rpc_arrivee, rpc_depart, stations_taxi;Auvergne-Rhône-Alpes;Rhône;Lyon;Lyon 7e Arrondissement;45.732110027512974;4.839314194613352;LYON 07, France
INSEE_69388;69388;Lyon 8e Arrondissement;Métropole de Lyon;69;France;chantiers, rpc_arrivee, rpc_depart, stations_taxi;Auvergne-Rhône-Alpes;Rhône;Lyon;Lyon 8e Arrondissement;45.734196894942855;4.869548513194665;LYON 08, France
INSEE_69389;69389;Lyon 9e Arrondissement;Métropole de Lyon;69;France;chantiers, comptage_sites, rpc_arrivee, rpc_depart, stations_taxi;Auvergne-Rhône-Alpes;Rhône;Lyon;Lyon 9e Arrondissement;45.783549796948286;4.812782752359595;LYON 09, France
INSEE_69600;69600;69600;;69;France;comptage_sites;Auvergne-Rhône-Alpes;Rhône;Lyon;Oullins;45.70801978571337;4.811191426445426;OULLINS PIERRE BENITE, France
INSEE_69700;69700;69700;;69;France;comptage_sites;Auvergne-Rhône-Alpes;Rhône;Lyon;Givors;45.58448853820131;4.75608813206243;GIVORS, France
INSEE_71072;71072;Cersot;CC Sud Côte Chalonnaise;71;France;rpc_depart;Bourgogne-Franche-Comté;Saône-et-Loire;Chalon-sur-Saône;Cersot;46.7069370739058;4.634215264823688;CERSOT, France
INSEE_71090;71090;La Chapelle-de-Guinchay;Communauté d'agglomération Mâconnais Beaujolais Agglomération;71;France;rpc_arrivee, rpc_depart;Bourgogne-Franche-Comté;Saône-et-Loire;Mâcon;Chapelle-de-Guinchay;46.217692157519636;4.758649127978931;LA CHAPELLE DE GUINCHAY, France
INSEE_71105;71105;Charnay-lès-Mâcon;Communauté d'agglomération Mâconnais Beaujolais Agglomération;71;France;rpc_arrivee, rpc_depart;Bourgogne-Franche-Comté;Saône-et-Loire;Mâcon;Charnay-lès-Mâcon;46.305412915956964;4.7887093001816865;CHARNAY LES MACON, France
INSEE_71270;71270;Mâcon;Communauté d'agglomération Mâconnais Beaujolais Agglomération;71;France;rpc_arrivee, rpc_depart;Bourgogne-Franche-Comté;Saône-et-Loire;Mâcon;Mâcon;46.326470741035166;4.808266942330246;MACON, France
INSEE_71360;71360;Prissé;Communauté d'agglomération Mâconnais Beaujolais Agglomération;71;France;rpc_arrivee;Bourgogne-Franche-Comté;Saône-et-Loire;Mâcon;Prissé;46.326194109937575;4.749031554754384;PRISSE, France
INSEE_71383;71383;Saint-Albain;Communauté de communes Mâconnais - Tournugeois;71;France;rpc_arrivee;Bourgogne-Franche-Comté;Saône-et-Loire;Mâcon;Saint-Albain;46.42510351889034;4.864488774411756;ST ALBAIN, France
INSEE_71520;71520;Sevrey;Communauté d'agglomération Le Grand Chalon;71;France;rpc_arrivee, rpc_depart;Bourgogne-Franche-Comté;Saône-et-Loire;Chalon-sur-Saône;Sevrey;46.736437624438565;4.828490996517619;SEVREY, France
INSEE_71543;71543;Tournus;Communauté de communes Mâconnais - Tournugeois;71;France;rpc_arrivee;Bourgogne-Franche-Comté;Saône-et-Loire;Mâcon;Tournus;46.567981350392905;4.902494654167745;TOURNUS, France
INSEE_73008;73008;Aix-les-Bains;Communauté d'agglomération Grand Lac;73;France;rpc_depart;Auvergne-Rhône-Alpes;Savoie;Chambéry;Aix-les-Bains;45.69429521202848;5.903492709890331;AIX LES BAINS, France
INSEE_73029;73029;Barberaz;Communauté d'agglomération du Grand Chambéry;73;France;rpc_arrivee, rpc_depart;Auvergne-Rhône-Alpes;Savoie;Chambéry;Barberaz;45.55283575751087;5.9387641694933615;BARBERAZ, France
INSEE_73065;73065;Chambéry;Communauté d'agglomération du Grand Chambéry;73;France;rpc_arrivee, rpc_depart;Auvergne-Rhône-Alpes;Savoie;Chambéry;Chambéry;45.582234550844625;5.906352480743489;CHAMBERY, France
INSEE_73103;73103;Drumettaz-Clarafond;CA Grand Lac;73;France;rpc_arrivee;Auvergne-Rhône-Alpes;Savoie;Chambéry;Drumettaz-Clarafond;45.6610099398787;5.937670606027523;DRUMETTAZ CLARAFOND, France
INSEE_73179;73179;La Motte-Servolex;Communauté d'agglomération du Grand Chambéry;73;France;rpc_arrivee, rpc_depart;Auvergne-Rhône-Alpes;Savoie;Chambéry;Motte-Servolex;45.60373812927789;5.854041843638836;LA MOTTE SERVOLEX, France
INSEE_73182;73182;Mouxy;CA Grand Lac;73;France;rpc_depart;Auvergne-Rhône-Alpes;Savoie;Chambéry;Mouxy;45.68063315998447;5.948083273874532;MOUXY, France
INSEE_73184;73184;Nances;Communauté de communes du Lac d'Aiguebelette (CCLA);73;France;rpc_arrivee, rpc_depart;Auvergne-Rhône-Alpes;Savoie;Chambéry;Nances;45.58523512688631;5.799210771485058;NANCES, France
INSEE_73213;73213;La Ravoire;Communauté d'agglomération du Grand Chambéry;73;France;rpc_arrivee, rpc_depart;Auvergne-Rhône-Alpes;Savoie;Chambéry;Ravoire;45.5552004830318;5.957932955438317;LA RAVOIRE, France
INSEE_73219;73219;Saint-Alban-de-Montbel;Communauté de communes du Lac d'Aiguebelette (CCLA);73;France;rpc_depart;Auvergne-Rhône-Alpes;Savoie;Chambéry;Saint-Alban-de-Montbel;45.55240702356335;5.776471480671311;ST ALBAN DE MONTBEL, France
INSEE_73222;73222;Saint-Alban-Leysse;Communauté d'agglomération du Grand Chambéry;73;France;rpc_arrivee;Auvergne-Rhône-Alpes;Savoie;Chambéry;Saint-Alban-Leysse;45.58998944833633;5.958461062385245;ST ALBAN LEYSSE, France
INSEE_74002;74002;Alby-sur-Chéran;Communauté d'agglomération du Grand Annecy;74;France;rpc_arrivee, rpc_depart;Auvergne-Rhône-Alpes;Haute-Savoie;Annecy;Alby-sur-Chéran;45.814521651139636;6.019677706696552;ALBY SUR CHERAN, France
INSEE_74010;74010;Annecy;Communauté d'agglomération du Grand Annecy;74;France;rpc_depart;Auvergne-Rhône-Alpes;Haute-Savoie;Annecy;Annecy;45.90235447632647;6.126403583730467;ANNECY, France
INSEE_74016;74016;Archamps;CC du Genevois;74;France;rpc_depart;Auvergne-Rhône-Alpes;Haute-Savoie;Saint-Julien-en-Genevois;Archamps;46.12071534730456;6.1416730942184;ARCHAMPS, France
